,station_name,station_lat,station_lon,station_id,mt1,cs2,sc4,ac5,sw8,ct1
0,102. 망원역 1번출구 앞,37.55564880,126.91062927,ST-4,540.0,40.0,266.0,96.0,67.0,276.0
1,103. 망원역 2번출구 앞,37.55495071,126.91083527,ST-5,463.0,47.0,186.0,30.0,141.0,273.0
2,104. 합정역 1번출구 앞,37.55062866,126.91498566,ST-6,164.0,17.0,339.0,46.0,92.0,80.0
3,105. 합정역 5번출구 앞,37.55000687,126.91482544,ST-7,194.0,30.0,277.0,51.0,34.0,85.0
4,106. 합정역 7번출구 앞,37.54864502,126.91282654,ST-8,294.0,70.0,294.0,94.0,123.0,93.0
5,107. 신한은행 서교동지점,37.55751038,126.91850281,ST-9,708.0,69.0,510.0,86.0,471.0,85.0
6,108. 서교동 사거리,37.55274582,126.91861725,ST-10,497.0,67.0,611.0,108.0,483.0,38.0
7,109. 제일빌딩 앞,37.54769135,126.91998291,ST-11,711.0,8.0,358.0,136.0,216.0,18.0
8,111. 상수역 2번출구 앞,37.54787064,126.92353058,ST-15,762.0,62.0,315.0,21.0,97.0,102.0
9,112. 극동방송국 앞,37.54920197,126.92320251,ST-16,824.0,30.0,278.0,32.0,173.0,22.0
10,113. 홍대입구역 2번출구 앞,37.55749893,126.92380524,ST-18,434.0,42.0,293.0,34.0,69.0,73.0
11,114. 홍대입구역 8번출구 앞,37.55706024,126.92442322,ST-20,396.0,68.0,229.0,42.0,60.0,40.0
12,115. 마스타 빌딩 앞,37.55893326,126.92711639,ST-12,143.0,48.0,464.0,25.0,164.0,79.0
13,116. 일진아이윌아파트 옆,37.56454086,126.92707062,ST-14,528.0,59.0,417.0,57.0,787.0,180.0
14,117. 홍은사거리,37.59115982,126.94132996,ST-17,60.0,126.0,312.0,62.0,362.0,365.0
15,118. 광흥창역 2번출구 앞,37.54773331,126.93176270,ST-19,99.0,33.0,220.0,52.0,36.0,99.0
16,119. 서강나루 공원,37.54528427,126.93105316,ST-21,145.0,101.0,267.0,64.0,259.0,131.0
17,120. 신수동 사거리,37.54524231,126.93411255,ST-22,150.0,90.0,140.0,51.0,309.0,156.0
18,121. 마포소방서 앞,37.54976654,126.93317413,ST-23,110.0,145.0,316.0,77.0,272.0,159.0
19,122. 신성기사식당 앞,37.54745865,126.93837738,ST-24,277.0,77.0,175.0,44.0,362.0,293.0
20,123. 문화촌 공원,37.59432983,126.94738770,ST-25,521.0,41.0,329.0,83.0,677.0,723.0
21,124. 서강대 정문 건너편,37.55113983,126.93698883,ST-26,328.0,117.0,255.0,102.0,171.0,194.0
22,125. 서강대 남문 옆,37.54948425,126.93894958,ST-27,462.0,47.0,207.0,31.0,372.0,69.0
23,126. 서강대 후문 옆,37.55041122,126.94384766,ST-28,339.0,55.0,174.0,78.0,330.0,85.0
24,127. 현대벤처빌 앞,37.55352020,126.93695068,ST-29,182.0,43.0,252.0,49.0,186.0,73.0
25,128. 신촌역(2호선) 1번출구 옆,37.55549622,126.93634033,ST-30,64.0,6.0,249.0,52.0,65.0,119.0
26,129. 신촌역(2호선) 6번출구 옆,37.55505371,126.93756866,ST-31,138.0,73.0,134.0,36.0,54.0,99.0
27,130. 신촌역(2호선) 7번출구 앞,37.55485916,126.93615723,ST-32,18.0,54.0,260.0,21.0,81.0,142.0
28,131. 증산2교,37.58417130,126.91110229,ST-33,291.0,16.0,318.0,194.0,149.0,359.0
29,133. 해담는다리,37.58203125,126.90899658,ST-35,405.0,13.0,400.0,73.0,195.0,310.0
30,134. 연세로 명물길,37.55789185,126.93807983,ST-36,35.0,60.0,331.0,126.0,314.0,34.0
31,135. 명물길 원형무대 앞,37.55910110,126.93917847,ST-37,50.0,97.0,398.0,104.0,264.0,140.0
32,137. 신촌기차역입구 교차로,37.55681229,126.94318390,ST-39,385.0,56.0,366.0,56.0,286.0,177.0
33,138. 신촌동 제1공영주차장 앞,37.55917740,126.93452454,ST-40,357.0,28.0,182.0,121.0,491.0,80.0
34,139. 연세대 정문 건너편,37.55979538,126.93447876,ST-43,400.0,39.0,244.0,80.0,556.0,140.0
35,140. 이화여대 후문,37.56000900,126.94073486,ST-41,154.0,120.0,228.0,134.0,125.0,111.0
36,141. 연대 대운동장 옆,37.56238174,126.93264771,ST-42,569.0,128.0,213.0,264.0,733.0,321.0
37,142. 아현역 4번출구 앞,37.55720139,126.95566559,ST-200,916.0,104.0,100.0,32.0,48.0,288.0
38,143. 공덕역 2번출구,37.54457855,126.95021820,ST-201,64.0,44.0,333.0,89.0,108.0,251.0
39,144. 공덕역 8번출구,37.54357910,126.95132446,ST-202,172.0,34.0,327.0,115.0,50.0,303.0
40,145. 공덕역 5번출구,37.54425049,126.95163727,ST-203,123.0,35.0,253.0,113.0,36.0,224.0
41,146. 마포역 2번출구 뒤,37.53993607,126.94582367,ST-204,413.0,40.0,308.0,33.0,42.0,193.0
42,147. 마포역 4번출구 뒤,37.53927231,126.94591522,ST-205,447.0,34.0,350.0,88.0,31.0,127.0
43,148. 용강동 주민센터 앞,37.54234695,126.94302368,ST-206,209.0,64.0,274.0,103.0,398.0,371.0
44,150. 서강대역 2번출구 앞,37.55295563,126.93434143,ST-207,260.0,30.0,478.0,46.0,137.0,236.0
45,153. 성산2교 사거리,37.56469727,126.91261292,ST-210,772.0,5.0,251.0,35.0,489.0,547.0
46,154. 마포구청역 ,37.56090927,126.90549469,ST-211,1024.0,76.0,399.0,10.0,339.0,399.0
47,155. 가좌역1 번출구 앞,37.56829453,126.91504669,ST-212,761.0,144.0,183.0,220.0,54.0,597.0
48,156. 서울서부지방법원 앞,37.54990387,126.95514679,ST-213,669.0,46.0,342.0,75.0,412.0,485.0
49,157. 애오개역 4번출구 앞,37.55300140,126.95668793,ST-214,773.0,40.0,317.0,110.0,45.0,241.0
50,159. 이대역 4번 출구,37.55695343,126.94634247,ST-216,533.0,45.0,190.0,37.0,17.0,116.0
51,160. 북아현동 가구거리,37.55754852,126.95938110,ST-217,643.0,106.0,287.0,85.0,286.0,320.0
52,161. 무악재역1번 출구,37.58224487,126.95064545,ST-218,422.0,22.0,296.0,92.0,50.0,764.0
53,162. 봉원고가차도 밑,37.56526947,126.94624329,ST-219,914.0,122.0,142.0,49.0,721.0,169.0
54,163. 명지전문대학교 정문 앞,37.58369827,126.92496490,ST-220,487.0,77.0,190.0,117.0,1281.0,210.0
55,164. 북가좌1동 주민센터 ,37.57447815,126.91004944,ST-221,378.0,76.0,52.0,114.0,763.0,1003.0
56,165. 중앙근린공원,37.57513809,126.91394043,ST-222,206.0,45.0,354.0,36.0,714.0,863.0
57,166. 가재울 초등학교,37.57381821,126.91923523,ST-223,226.0,33.0,64.0,32.0,685.0,446.0
58,167. 연가초등학교 옆,37.57946014,126.91712952,ST-224,377.0,88.0,75.0,44.0,825.0,713.0
59,169. 북가좌 삼거리,37.57300186,126.90779877,ST-226,530.0,121.0,208.0,120.0,666.0,833.0
60,170. DMC파크뷰자이아파트 302동 앞,37.57311249,126.92244720,ST-227,458.0,23.0,353.0,71.0,830.0,308.0
61,171. 임광빌딩 앞,37.56472397,126.96727753,ST-228,108.0,57.0,178.0,220.0,127.0,129.0
62,173. 서대문역 8번출구 앞,37.56477737,126.96614838,ST-230,157.0,26.0,151.0,133.0,116.0,99.0
63,175. 홍연2교옆,37.57806778,126.93088531,ST-231,795.0,46.0,432.0,57.0,1671.0,98.0
64,176. 명지대학교 도서관,37.58109665,126.92402649,ST-555,249.0,86.0,142.0,40.0,1316.0,131.0
65,177. 북가좌 초등학교,37.57767487,126.90980530,ST-345,31.0,70.0,189.0,37.0,674.0,780.0
66,178. 증산3교 앞,37.57987595,126.90634918,ST-349,393.0,30.0,267.0,109.0,511.0,500.0
67,179. 가좌역 4번출구 앞,37.56912231,126.91479492,ST-232,707.0,129.0,184.0,138.0,42.0,648.0
68,180. 충정로역 7번출구 아래,37.55996704,126.96246338,ST-233,689.0,30.0,408.0,158.0,72.0,11.0
69,181. 망원초록길 입구,37.55134201,126.90267181,ST-339,939.0,200.0,762.0,254.0,840.0,447.0
70,182. 망원2빗물펌프장 앞,37.55136490,126.90306091,ST-340,905.0,179.0,738.0,225.0,812.0,437.0
71,183. 하늘채코오롱아파트 건너편,37.56516647,126.91939545,ST-341,244.0,150.0,156.0,131.0,566.0,270.0
72,184. 7번가피자 서교망원점,37.55894852,126.90775299,ST-342,983.0,23.0,371.0,25.0,379.0,199.0
73,185. 마포 신수공원 앞,37.54254532,126.93429565,ST-343,393.0,41.0,379.0,48.0,583.0,272.0
74,186. 월드컵공원,37.56396484,126.89820862,ST-344,484.0,64.0,423.0,393.0,463.0,402.0
75,188. 홍은동 정원여중 입구,37.58638763,126.93512726,ST-346,815.0,52.0,186.0,46.0,841.0,623.0
76,191. 서우빌딩,37.57889175,126.91073608,ST-347,127.0,18.0,301.0,7.0,549.0,688.0
77,192. 연서어린이공원,37.57222748,126.92306519,ST-348,564.0,123.0,433.0,169.0,825.0,390.0
78,194. 증산교 앞,37.57731628,126.90296936,ST-350,468.0,93.0,416.0,241.0,201.0,454.0
79,195. 모래내고가차도 ,37.56765747,126.91780853,ST-351,550.0,90.0,433.0,94.0,290.0,343.0
80,196. 연희교차로 인근,37.56612015,126.92589569,ST-352,504.0,62.0,278.0,72.0,968.0,143.0
81,198. 충정2교,37.56213760,126.96377563,ST-354,513.0,59.0,236.0,169.0,200.0,266.0
82,199. 서울 월드컵 경기장,37.56684494,126.89644623,ST-443,250.0,55.0,772.0,589.0,388.0,161.0
83,200. 국회의원회관,37.52841568,126.91391754,ST-45,240.0,193.0,580.0,215.0,347.0,122.0
84,201. 진미파라곤 앞,37.53123856,126.92133331,ST-46,540.0,64.0,1214.0,40.0,461.0,126.0
85,202. 국민일보 앞,37.52881622,126.92453003,ST-47,681.0,58.0,971.0,277.0,596.0,81.0
86,203. 국회의사당역 3번출구 옆,37.52805710,126.91870117,ST-51,159.0,72.0,983.0,90.0,77.0,367.0
87,204. 국회의사당역 5번출구 옆,37.52816391,126.91702271,ST-50,34.0,47.0,841.0,80.0,72.0,285.0
88,205. 산업은행 앞,37.52626419,126.92050934,ST-52,364.0,167.0,742.0,210.0,315.0,287.0
89,206. KBS 앞,37.52466583,126.91802216,ST-53,368.0,96.0,687.0,212.0,386.0,279.0
90,207. 여의나루역 1번출구 앞,37.52715683,126.93190002,ST-73,440.0,85.0,331.0,156.0,96.0,328.0
91,209. 유진투자증권빌딩 앞,37.52461243,126.92783356,ST-55,413.0,33.0,578.0,32.0,437.0,159.0
92,210. IFC몰,37.52603149,126.92550659,ST-56,667.0,109.0,722.0,273.0,482.0,38.0
93,213. KT앞,37.52190781,126.91895294,ST-59,685.0,107.0,419.0,118.0,481.0,545.0
94,214. 금융감독원 앞,37.52302170,126.92083740,ST-60,640.0,47.0,397.0,105.0,343.0,379.0
95,215. 여의도고교 앞,37.52483749,126.93490601,ST-64,303.0,214.0,48.0,147.0,307.0,497.0
96,217. NH농협은행 앞,37.52207947,126.93036652,ST-66,201.0,86.0,384.0,70.0,514.0,163.0
97,219. 롯데캐슬엠파이어 옆,37.52069473,126.92583466,ST-62,278.0,136.0,249.0,95.0,116.0,272.0
98,220. 미성아파트 A동 앞,37.51936340,126.92604828,ST-63,135.0,134.0,176.0,111.0,235.0,318.0
99,221. 여의도초교 앞,37.52267456,126.93778992,ST-67,445.0,200.0,91.0,269.0,653.0,334.0
100,222. 시범아파트버스정류장 옆,37.51943588,126.93759918,ST-68,389.0,39.0,360.0,40.0,711.0,230.0
101,223. 진주아파트상가 앞,37.51931381,126.93316650,ST-69,148.0,36.0,412.0,32.0,475.0,135.0
102,224. 롯데캐슬 앞,37.52008820,126.93236542,ST-70,113.0,72.0,364.0,51.0,463.0,101.0
103,225. 앙카라공원 앞,37.51736832,126.92925262,ST-71,237.0,65.0,482.0,198.0,77.0,273.0
104,226. 샛강역 1번출구 앞,37.51776505,126.92841339,ST-72,151.0,100.0,397.0,172.0,43.0,270.0
105,227. 양평2나들목 보행통로 입구,37.54466629,126.88835907,ST-277,814.0,175.0,555.0,314.0,467.0,750.0
106,228. 선유도역 3번출구 앞,37.53845978,126.89450836,ST-278,163.0,25.0,214.0,27.0,109.0,169.0
107,229. 양평1 보행육교 앞,37.53587341,126.89218140,ST-279,260.0,173.0,320.0,240.0,273.0,73.0
108,230. 영등포구청역 1번출구,37.52463531,126.89621735,ST-413,441.0,17.0,536.0,34.0,90.0,291.0
109,231. 남부고용노동지청 남측,37.52450562,126.89182281,ST-280,177.0,28.0,255.0,30.0,310.0,380.0
110,232. 양평우림 이비즈센타 앞,37.52565002,126.88781738,ST-281,336.0,35.0,230.0,66.0,123.0,170.0
111,233. YP 센터 앞,37.52848816,126.89164734,ST-282,96.0,69.0,260.0,184.0,533.0,312.0
112,234. 영등포구민체육센터 앞,37.50046158,126.90584564,ST-283,713.0,47.0,265.0,162.0,347.0,1225.0
113,235. 신길동 우리은행 옆,37.50456619,126.91023254,ST-284,181.0,133.0,389.0,153.0,495.0,1004.0
114,236. 문래동자이아파트 앞,37.51615524,126.89461517,ST-285,257.0,93.0,259.0,80.0,202.0,219.0
115,237. 보라매 두산위브 건너편,37.49651337,126.91480255,ST-286,154.0,58.0,130.0,63.0,599.0,356.0
116,238. 제2구민체육센타 앞,37.52638626,126.90275574,ST-287,226.0,91.0,299.0,132.0,461.0,233.0
117,239. 유스호스텔 앞,37.52585220,126.90328217,ST-288,245.0,109.0,228.0,131.0,386.0,282.0
118,240. 문래역 4번출구 앞,37.51873779,126.89557648,ST-289,61.0,165.0,129.0,61.0,110.0,459.0
119,241. 신길우성1차아파트 앞 공원,37.50501633,126.89853668,ST-290,273.0,143.0,542.0,66.0,708.0,714.0
120,242. 신길선원가와인아파트 앞,37.51093292,126.91022491,ST-291,68.0,64.0,186.0,63.0,576.0,314.0
121,243. 이앤씨드림타워 앞,37.52708435,126.89138031,ST-292,98.0,62.0,124.0,47.0,469.0,350.0
122,244. 영등포삼환아파트 앞,37.53007889,126.90570831,ST-293,271.0,103.0,279.0,32.0,517.0,457.0
123,245. 삼성생명 당산사옥 앞,37.52826309,126.89662933,ST-294,400.0,43.0,476.0,44.0,270.0,166.0
124,247. 당산역 10번출구 앞,37.53368759,126.90210724,ST-295,221.0,8.0,302.0,96.0,12.0,113.0
125,248. 초원아파트 앞,37.53105545,126.92420959,ST-296,735.0,68.0,1127.0,276.0,648.0,187.0
126,249. 여의도중학교 옆,37.52412033,126.93654633,ST-297,400.0,237.0,61.0,239.0,460.0,466.0
127,250. 대림아파트 사거리,37.50764084,126.92308044,ST-298,278.0,67.0,385.0,144.0,702.0,242.0
128,251. 서울지방병무청 버스정류장,37.50449371,126.92195129,ST-299,90.0,78.0,212.0,13.0,520.0,32.0
129,252. 보라매역4번출구,37.49982834,126.91994476,ST-300,377.0,40.0,272.0,14.0,59.0,371.0
130,254. 도림신협 앞,37.50380325,126.90341949,ST-302,391.0,32.0,138.0,32.0,693.0,1084.0
131,255. 도림사거리,37.50657272,126.90113068,ST-303,28.0,72.0,475.0,35.0,861.0,743.0
132,256. 동아에코빌입구,37.50947571,126.89929962,ST-304,339.0,141.0,297.0,99.0,693.0,422.0
133,258. 신길역3번출구,37.51769257,126.91429901,ST-306,536.0,45.0,236.0,47.0,54.0,259.0
134,259. 대방역6번출구,37.51359177,126.92593384,ST-307,126.0,15.0,360.0,70.0,56.0,222.0
135,260. 여의도 마리나선착장 앞,37.53365707,126.91216278,ST-414,372.0,530.0,437.0,568.0,791.0,498.0
136,262. 영문초등학교 사거리,37.51992798,126.88918304,ST-416,79.0,69.0,141.0,31.0,540.0,440.0
137,263. 근로자회관 사거리,37.51715088,126.88862610,ST-417,233.0,31.0,287.0,52.0,551.0,212.0
138,264. 교보생명보험 앞,37.52193069,126.89161682,ST-418,381.0,79.0,435.0,47.0,415.0,434.0
139,265. 영등포유통상가 사거리,37.52113342,126.89653778,ST-419,326.0,74.0,151.0,64.0,359.0,441.0
140,266. 영등포청과시장 사거리,37.52029419,126.90119171,ST-420,368.0,120.0,193.0,159.0,442.0,20.0
141,267. 삼성화재 사옥 옆,37.53596115,126.89830017,ST-421,515.0,61.0,372.0,105.0,402.0,172.0
142,268. 그랜드컨벤션센터 앞,37.53471756,126.90000153,ST-422,329.0,34.0,265.0,8.0,217.0,117.0
143,270. 증권거래소후문교차로,37.52234268,126.92710114,ST-424,447.0,68.0,460.0,44.0,247.0,193.0
144,271. 샛강생태공원방문자센터 앞,37.51896286,126.92161560,ST-425,467.0,317.0,153.0,309.0,364.0,687.0
145,272. 당산육갑문,37.53533936,126.90367889,ST-426,449.0,36.0,503.0,49.0,112.0,231.0
146,274. 영등포역지하쇼핑센타 5번출구,37.51665115,126.90798950,ST-1319,421.0,63.0,532.0,49.0,115.0,44.0
147,275. 신동아아파트,37.52222061,126.88558197,ST-1320,443.0,123.0,225.0,40.0,380.0,273.0
148,276. SK 영등포주유소,37.51828384,126.91263580,ST-1321,686.0,56.0,317.0,91.0,212.0,173.0
149,278. 쌍용플레티넘오피스텔,37.50793076,126.89523315,ST-1323,439.0,31.0,614.0,67.0,321.0,326.0
150,279. 영등포 푸르지오 아파트,37.51322937,126.90446472,ST-1353,478.0,27.0,336.0,52.0,384.0,289.0
151,280. 양평동6차현대아파트 앞,37.53210068,126.89443970,ST-1539,526.0,100.0,106.0,89.0,679.0,247.0
152,281. 신동아아파트 앞,37.49824142,126.89398193,ST-1540,551.0,176.0,237.0,117.0,553.0,331.0
153,282. 신한은행,37.48752975,126.90487671,ST-1541,697.0,51.0,209.0,96.0,392.0,125.0
154,283. 아크로타워 스퀘어(영등포시장),37.52251816,126.90721893,ST-1649,629.0,106.0,326.0,117.0,181.0,248.0
155,284. 센트럴 푸르지오 시티 앞,37.51821136,126.90222931,ST-1650,128.0,30.0,170.0,157.0,548.0,90.0
156,285. 대림3동사거리(하나은행),37.49985886,126.89723969,ST-1651,364.0,41.0,154.0,72.0,755.0,670.0
157,286. 우성아파트 교차로,37.49457169,126.89974976,ST-1652,733.0,92.0,101.0,17.0,329.0,839.0
158,287. 영등포전화국사거리 (서강어린이공원),37.52576828,126.90573883,ST-1653,245.0,101.0,207.0,76.0,343.0,498.0
159,288. 쌍용예가(구청별관),37.52809906,126.89338684,ST-1677,116.0,118.0,334.0,141.0,384.0,198.0
160,289. 대림3동사거리,37.49980927,126.89800262,ST-1697,395.0,64.0,215.0,46.0,770.0,727.0
161,290. 당산동 SK V1 빌딩,37.53150940,126.89782715,ST-1698,288.0,78.0,140.0,83.0,459.0,133.0
162,291. 문래동 하이테크 시티,37.51385117,126.89888000,ST-1699,509.0,77.0,117.0,22.0,583.0,114.0
163,292. 영일 어린이공원,37.51012039,126.90406799,ST-1700,477.0,60.0,176.0,52.0,688.0,489.0
164,293. 충북 미래관,37.52917099,126.90757751,ST-1701,303.0,61.0,256.0,72.0,701.0,591.0
165,295.영등포공원 분수대 앞,37.51481247,126.91170502,ST-1967,411.0,136.0,209.0,147.0,379.0,149.0
166,296.KT플라자 영등포점,37.52630234,126.90538025,ST-1968,179.0,34.0,209.0,60.0,399.0,464.0
167,297.국회3문,37.52863693,126.91267395,ST-1969,187.0,306.0,486.0,319.0,459.0,168.0
168,298.KBS 연구동 건너편,37.52750778,126.91429901,ST-1970,234.0,163.0,592.0,173.0,320.0,203.0
169,299.여의도 순복음교회,37.53179169,126.92245483,ST-1971,655.0,177.0,1300.0,154.0,574.0,176.0
170,300. 정동사거리,37.56805038,126.96923065,ST-116,303.0,74.0,184.0,12.0,342.0,64.0
171,301. 경복궁역 7번출구 앞,37.57579422,126.97145081,ST-117,176.0,16.0,450.0,34.0,198.0,196.0
172,302. 경복궁역 4번출구 뒤,37.57594681,126.97406006,ST-118,384.0,16.0,661.0,244.0,35.0,35.0
173,303. 광화문역 1번출구 앞,37.57176971,126.97466278,ST-119,131.0,68.0,348.0,95.0,156.0,90.0
174,305. 종로구청 옆,37.57245255,126.97866821,ST-121,396.0,86.0,556.0,84.0,217.0,71.0
175,307. 서울역사박물관 앞,37.56999969,126.97109985,ST-123,336.0,95.0,343.0,179.0,504.0,73.0
176,308. 광화문 S타워 앞,37.56996918,126.97393799,ST-124,105.0,19.0,158.0,72.0,288.0,156.0
177,309. 광화문역 6번출구 옆,37.56988907,126.97645569,ST-125,163.0,67.0,216.0,128.0,195.0,104.0
178,310. 청계광장 옆,37.56887817,126.97747040,ST-126,300.0,76.0,256.0,117.0,321.0,98.0
179,314. 국립현대미술관,37.57970810,126.98085785,ST-130,1108.0,113.0,245.0,218.0,537.0,78.0
180,316. 종각역 1번출구 앞,37.57039642,126.98178864,ST-132,614.0,64.0,665.0,86.0,121.0,77.0
181,318. 광교사거리 남측,37.56863403,126.98231506,ST-134,695.0,93.0,682.0,94.0,191.0,50.0
182,320. 을지로입구역 4번출구 앞,37.56622314,126.98358917,ST-136,912.0,19.0,475.0,30.0,124.0,98.0
183,321. KEB 하나금융그룹 명동사옥 옆,37.56546402,126.98413849,ST-137,1000.0,59.0,406.0,32.0,183.0,66.0
184,322. 명동성당 앞,37.56447601,126.98696899,ST-138,1269.0,45.0,155.0,69.0,392.0,84.0
185,324. 신세계백화점 본점 앞,37.56134033,126.98040009,ST-140,1077.0,67.0,538.0,179.0,334.0,73.0
186,326. 안국역 5번출구 앞,37.57624054,126.98616028,ST-142,1180.0,39.0,163.0,61.0,71.0,43.0
187,327. 낙원상가 옆,37.57335663,126.98746490,ST-143,1157.0,44.0,188.0,89.0,274.0,23.0
188,328. 탑골공원 앞,37.57039642,126.98818970,ST-144,1180.0,90.0,506.0,60.0,313.0,80.0
189,329. 청계2가 사거리 옆,37.56834412,126.98789215,ST-145,1180.0,67.0,396.0,26.0,355.0,64.0
190,331. 을지로2가 사거리 북측,37.56638336,126.98720551,ST-147,1188.0,39.0,216.0,86.0,334.0,139.0
191,332. 을지로2가 사거리 남측,37.56599045,126.98779297,ST-148,1253.0,83.0,150.0,116.0,283.0,162.0
192,334. 종로3가역 2번출구 뒤,37.57059860,126.99179077,ST-150,1498.0,10.0,579.0,46.0,37.0,62.0
193,335. 종로3가역 15번출구 앞,37.57019806,126.99125671,ST-151,1451.0,71.0,593.0,26.0,82.0,90.0
194,336. 티마크 호텔 앞,37.56261826,126.99283600,ST-152,1556.0,22.0,442.0,108.0,178.0,67.0
195,337. 창경궁 입구,37.57897949,126.99647522,ST-153,716.0,232.0,317.0,388.0,590.0,170.0
196,338. 세운스퀘어 앞,37.57095718,126.99712372,ST-154,1050.0,115.0,579.0,81.0,385.0,218.0
197,339. 종로4가 사거리,37.57106781,126.99819183,ST-155,961.0,20.0,489.0,106.0,295.0,197.0
198,340. 혜화동 로터리,37.58562851,127.00067902,ST-156,53.0,13.0,166.0,65.0,413.0,99.0
199,341. 혜화역 3번출구 뒤,37.58156967,127.00178528,ST-157,220.0,49.0,113.0,126.0,54.0,47.0
200,342. 대학로 마로니에공원,37.57978439,127.00253296,ST-158,198.0,35.0,68.0,87.0,256.0,43.0
201,343. 예일빌딩(율곡로) 앞,37.57543182,127.00498199,ST-159,622.0,49.0,296.0,47.0,580.0,47.0
202,344. 성균관대 E하우스 앞,37.57403564,127.00672150,ST-160,611.0,42.0,336.0,190.0,416.0,192.0
203,345. 서울보증보험본사 앞,37.57330704,127.00070953,ST-161,867.0,42.0,208.0,108.0,268.0,89.0
204,346. 맥스타일 앞,37.56918335,127.00988007,ST-162,115.0,102.0,392.0,171.0,197.0,156.0
205,347. 동대문역사문화공원역 9번출구 앞,37.56533051,127.00784302,ST-163,386.0,33.0,270.0,123.0,21.0,85.0
206,348. 독립문역 사거리,37.57202911,126.96078491,ST-183,248.0,85.0,191.0,56.0,370.0,32.0
207,349. 사직동주민센터,37.57633209,126.96858978,ST-165,218.0,66.0,204.0,23.0,454.0,145.0
208,351. 청운초교 앞 삼거리,37.58507919,126.97061920,ST-167,1152.0,25.0,152.0,158.0,1064.0,53.0
209,352. 중앙고입구 삼거리,37.58341599,126.98523712,ST-168,1353.0,210.0,157.0,185.0,767.0,39.0
210,353. 재동초교 앞 삼거리,37.57938766,126.98494720,ST-169,1322.0,22.0,82.0,90.0,322.0,36.0
211,354. 포르투갈 대사관 앞,37.57915497,126.98896027,ST-170,1213.0,32.0,311.0,119.0,429.0,25.0
212,355. 서울사대부속초교 앞,37.57650757,127.00245667,ST-171,521.0,15.0,96.0,131.0,616.0,84.0
213,356. KT혜화지사 앞,37.57714462,127.00205994,ST-172,466.0,50.0,102.0,173.0,543.0,70.0
214,358. 성대입구 사거리,37.58250046,126.99853516,ST-173,342.0,31.0,159.0,44.0,305.0,70.0
215,359. 원남동사거리,37.57606125,126.99768066,ST-174,793.0,54.0,151.0,275.0,659.0,63.0
216,361. 동묘앞역 1번출구 뒤,37.57324219,127.01590729,ST-175,54.0,53.0,338.0,51.0,40.0,190.0
217,362. 청계8가 사거리,37.57222366,127.02270508,ST-176,125.0,91.0,609.0,112.0,346.0,235.0
218,363. 신설동역 11번출구 뒤,37.57559204,127.02285004,ST-177,479.0,57.0,261.0,37.0,111.0,139.0
219,364. 창신역 1번출구 앞,37.57933426,127.01508331,ST-178,366.0,26.0,202.0,81.0,20.0,347.0
220,367. 독립문역 3-1번출구 ,37.57384872,126.95869446,ST-180,522.0,58.0,148.0,63.0,97.0,111.0
221,368. SK 서린빌딩 앞,37.56924820,126.98053741,ST-181,525.0,53.0,530.0,73.0,255.0,70.0
222,369. 광화문 시민열린마당,37.57549286,126.97850037,ST-182,632.0,96.0,385.0,96.0,426.0,174.0
223,370. 시청역(2호선) 9번출구 뒤,37.56322861,126.97483826,ST-185,701.0,36.0,418.0,106.0,84.0,64.0
224,371. 동대입구역 6번출구 뒤,37.55887222,127.00553894,ST-186,999.0,59.0,420.0,174.0,28.0,102.0
225,372. 약수역 3번출구 뒤,37.55429459,127.01119995,ST-187,632.0,25.0,459.0,62.0,35.0,142.0
226,374. 청구역 2번출구 앞,37.56047440,127.01407623,ST-189,307.0,72.0,88.0,82.0,31.0,423.0
227,379. 서울역9번출구,37.55599976,126.97335815,ST-194,278.0,43.0,569.0,60.0,112.0,156.0
228,380. CJ제일제당 앞,37.56386566,127.00274658,ST-195,754.0,86.0,238.0,46.0,281.0,192.0
229,381. 장충체육관,37.55853271,127.00698853,ST-196,906.0,30.0,411.0,56.0,159.0,142.0
230,382. 약수역 10번출구 앞,37.55519867,127.01004791,ST-197,685.0,57.0,407.0,43.0,106.0,74.0
231,383. 신당역 12번 출구 뒤,37.56584930,127.01640320,ST-198,328.0,40.0,228.0,111.0,33.0,141.0
232,384. 종로학원본원 ,37.55978012,126.96850586,ST-199,445.0,101.0,333.0,174.0,354.0,126.0
233,385. 종각역 5번출구,37.56983566,126.98265839,ST-336,696.0,21.0,725.0,118.0,61.0,118.0
234,387. 훈련원공원주차장 앞,37.56699371,127.00346375,ST-338,500.0,47.0,578.0,51.0,333.0,29.0
235,388. 동성중학교 앞,37.58573532,127.00160980,ST-444,121.0,75.0,85.0,87.0,410.0,76.0
236,389. 을지로4가역 1번출구,37.56673050,126.99660492,ST-943,1090.0,64.0,154.0,111.0,91.0,23.0
237,390. 충무로역 1번출구,37.56138992,126.99535370,ST-944,1433.0,35.0,477.0,38.0,16.0,24.0
238,391. 시립미술관,37.56505203,126.97340393,ST-977,525.0,41.0,204.0,182.0,246.0,102.0
239,393. 동대문역 8번 출구,37.57014084,127.00937653,ST-1372,165.0,123.0,506.0,162.0,85.0,85.0
240,394. 경희궁 자이 3단지,37.56748962,126.96591949,ST-1373,245.0,36.0,283.0,92.0,202.0,35.0
241,395. 경희궁 자이 2단지,37.56885529,126.96456146,ST-1374,236.0,19.0,133.0,58.0,390.0,205.0
242,397. 종묘공영주차장 건너편,37.57048035,126.99663544,ST-1432,1081.0,166.0,563.0,144.0,346.0,168.0
243,398. 을지로3가역 3번출구,37.56655884,126.99243927,ST-1435,1455.0,47.0,384.0,104.0,20.0,68.0
244,399. 서울역 센트럴 자이아파트,37.55410767,126.96540833,ST-1436,11.0,76.0,240.0,53.0,392.0,188.0
245,400. 상암한화오벨리스크 1차 앞,37.58752441,126.88300323,ST-110,377.0,21.0,303.0,160.0,1340.0,414.0
246,401. 상암월드컵파크 10단지 앞,37.58618927,126.88161469,ST-76,188.0,190.0,111.0,30.0,1374.0,421.0
247,402. 상암월드컵파크 9단지 앞,37.58285522,126.87982178,ST-77,215.0,110.0,297.0,152.0,1416.0,577.0
248,403. 부엉이공원 앞,37.58559036,126.88472748,ST-78,421.0,140.0,346.0,256.0,1098.0,152.0
249,405. DMC빌 앞,37.58265686,126.88578796,ST-80,558.0,14.0,238.0,109.0,894.0,220.0
250,406. 상암월드컵파크 7단지 앞,37.58131409,126.88058472,ST-81,388.0,52.0,222.0,56.0,1332.0,601.0
251,407. 마포구 육아종합지원센터,37.58063126,126.88367462,ST-83,560.0,74.0,59.0,55.0,1059.0,488.0
252,408. LG CNS앞,37.58081055,126.88665009,ST-84,676.0,95.0,232.0,104.0,796.0,265.0
253,409. 누리꿈스퀘어 옆,37.57939911,126.88916016,ST-86,405.0,74.0,95.0,178.0,596.0,132.0
254,410. 상암중학교 옆,37.57749557,126.88777161,ST-88,448.0,193.0,179.0,262.0,790.0,184.0
255,411. DMC홍보관,37.57799530,126.89147186,ST-90,148.0,84.0,192.0,98.0,488.0,79.0
256,412. DMC산학협력연구센터 앞,37.57580185,126.89073944,ST-91,242.0,64.0,172.0,30.0,659.0,103.0
257,413. 상암월드컵파크 3단지 후문,37.57147598,126.88968658,ST-92,695.0,376.0,607.0,355.0,856.0,271.0
258,414. 상암동주민센터 옆,37.57822037,126.89447021,ST-94,182.0,38.0,260.0,105.0,311.0,209.0
259,415. DMC역 9번출구 앞,37.57746887,126.89736176,ST-95,289.0,92.0,443.0,110.0,46.0,95.0
260,416. 상암월드컵파크 1단지 교차로,37.57566452,126.89444733,ST-96,223.0,75.0,193.0,113.0,366.0,114.0
261,417. DMC역 2번출구 옆,37.57506943,126.89991760,ST-93,540.0,210.0,481.0,158.0,159.0,106.0
262,418. 월드컵경기장역 3번출구 옆,37.57072067,126.89897919,ST-89,268.0,86.0,468.0,397.0,120.0,182.0
263,419. 홈플러스 앞,37.56842041,126.89942932,ST-87,74.0,109.0,523.0,361.0,137.0,136.0
264,420. 서울시 공공자전거 상암센터,37.56624603,126.89617920,ST-85,314.0,122.0,733.0,605.0,456.0,213.0
265,421. 마포구청 앞,37.56574631,126.90186310,ST-82,406.0,37.0,337.0,104.0,286.0,73.0
266,422. 문화비축기지,37.56897736,126.89440155,ST-968,377.0,176.0,848.0,678.0,421.0,135.0
267,424. 롯데하이마트 (상암월드컵점),37.57361984,126.89804840,ST-990,589.0,239.0,546.0,260.0,389.0,165.0
268,425. DMC첨단산업센터,37.58450317,126.88559723,ST-991,489.0,36.0,403.0,314.0,976.0,35.0
269,426. 서울신용보증재단,37.54906082,126.95417786,ST-992,544.0,67.0,352.0,66.0,530.0,361.0
270,427. 성산시영아파트,37.56958389,126.90381622,ST-1397,72.0,55.0,215.0,47.0,416.0,406.0
271,428. 명보사거리,37.56439972,126.99143219,ST-1437,1598.0,24.0,248.0,123.0,213.0,66.0
272,429. 송도병원,37.54988861,127.00734711,ST-1438,75.0,101.0,322.0,105.0,235.0,241.0
273,430. KEB하나은행 장충동지점,37.56217194,127.00626373,ST-1439,760.0,43.0,389.0,75.0,275.0,279.0
274,431. 청계천 영도교,37.57101440,127.01974487,ST-1440,185.0,47.0,325.0,206.0,377.0,462.0
275,432. 마포중앙도서관,37.56333923,126.90820312,ST-1494,860.0,63.0,126.0,129.0,422.0,453.0
276,433. 을지로입구역 2번출구,37.56634521,126.98229218,ST-1668,810.0,32.0,588.0,71.0,35.0,138.0
277,434. 신당 래미안 버스정류장,37.56148911,127.02393341,ST-1669,694.0,49.0,263.0,138.0,574.0,407.0
278,435. SK 남산빌딩,37.55686188,126.97561646,ST-1670,486.0,40.0,451.0,237.0,326.0,221.0
279,436. 이대역 5번출구,37.55659103,126.94618988,ST-1675,495.0,71.0,226.0,48.0,32.0,154.0
280,437. 대흥역 1번출구,37.54846954,126.94092560,ST-1691,340.0,122.0,270.0,49.0,164.0,263.0
281,438. 성산2-1 공영주차장,37.56472015,126.90676880,ST-1692,664.0,40.0,315.0,159.0,325.0,491.0
282,440. 하늘공원 입구,37.57012177,126.88134766,ST-1754,1284.0,904.0,1075.0,742.0,1568.0,243.0
283,441.염천교사거리,37.55989075,126.97149658,ST-1761,445.0,59.0,506.0,225.0,328.0,69.0
284,442.서울역 서부,37.55641556,126.96919250,ST-1768,100.0,172.0,201.0,111.0,196.0,174.0
285,443.호암아트홀,37.56211090,126.97071838,ST-1769,486.0,52.0,396.0,53.0,465.0,178.0
286,445.대한상공회의소,37.56015396,126.97410583,ST-1771,574.0,68.0,662.0,64.0,412.0,94.0
287,446. 상명대입구,37.60012817,126.95783234,ST-938,747.0,61.0,145.0,85.0,1743.0,104.0
288,447. 신영동삼거리,37.60399246,126.96194458,ST-939,358.0,177.0,120.0,66.0,2304.0,84.0
289,449. 일성아파트,37.60871887,126.97286224,ST-941,410.0,244.0,496.0,267.0,3148.0,57.0
290,450. 효자동 삼거리,37.58360291,126.97254944,ST-978,1012.0,165.0,388.0,114.0,871.0,123.0
291,451. 청와대앞길,37.58351517,126.97966766,ST-979,1298.0,257.0,636.0,181.0,929.0,58.0
292,452. 동대문 종합시장 버스정류장,37.57123947,127.00440979,ST-1605,467.0,69.0,244.0,4.0,255.0,287.0
293,453. 종로오가 지하쇼핑센터 14번출구,37.57114029,127.00067139,ST-1606,756.0,54.0,308.0,10.0,78.0,62.0
294,454. 종로2가 버스정류장 (종각방향),37.57035828,126.98638153,ST-1607,1020.0,31.0,534.0,29.0,285.0,64.0
295,455. 종로6가역 버스정류장(동대문 방향),37.57096100,127.00605774,ST-1608,337.0,67.0,360.0,125.0,287.0,236.0
296,456. 숭인2동 주민센터 입구,37.57447052,127.01982880,ST-1609,366.0,8.0,517.0,5.0,336.0,272.0
297,457. 종로꽃시장 입구 옆,37.57131958,127.00720978,ST-1610,313.0,53.0,419.0,17.0,191.0,149.0
298,458. 광화문역 5번출구,37.56989288,126.97756958,ST-1611,253.0,136.0,298.0,177.0,219.0,6.0
299,461. 서울지방경찰청,37.57436371,126.97236633,ST-1619,213.0,107.0,601.0,76.0,198.0,93.0
300,462. 신영동삼거리(북악터널방향),37.60351181,126.96206665,ST-1752,374.0,176.0,91.0,44.0,2273.0,60.0
301,464. 삼청동 골목,37.58419037,126.98169708,ST-1756,1475.0,104.0,455.0,248.0,914.0,101.0
302,465. 삼청공원 앞,37.58760452,126.98359680,ST-1759,1328.0,167.0,329.0,111.0,1242.0,16.0
303,466.롯데호텔,37.56584167,126.97981262,ST-1772,686.0,76.0,556.0,69.0,211.0,51.0
304,467.한국은행,37.56221390,126.98086548,ST-1773,1072.0,143.0,587.0,123.0,439.0,32.0
305,468.웨스틴 조선호텔,37.56415939,126.97948456,ST-1774,824.0,48.0,658.0,63.0,241.0,188.0
306,469.회현역 1번출구,37.55923080,126.98014069,ST-1775,947.0,24.0,307.0,221.0,159.0,134.0
307,470.회현역 7번출구,37.55974579,126.98000336,ST-1776,959.0,61.0,365.0,188.0,176.0,78.0
308,471.회현사거리 남측,37.56035995,126.98265076,ST-1777,1200.0,29.0,370.0,80.0,338.0,151.0
309,472.삼일교(시그니쳐 타워),37.56787109,126.98898315,ST-1778,1286.0,65.0,339.0,64.0,249.0,70.0
310,473.을지로4가역 9번출구,37.56605148,126.99798584,ST-1779,991.0,51.0,96.0,254.0,72.0,58.0
311,474.동대문역사문화공원역 1번출구 뒤편,37.56629944,127.00849152,ST-1780,272.0,100.0,218.0,93.0,83.0,95.0
312,475.DDP 패션몰,37.56764984,127.01181030,ST-1781,301.0,89.0,213.0,300.0,331.0,42.0
313,476.광희문,37.56443024,127.00995636,ST-1782,492.0,39.0,165.0,75.0,160.0,258.0
314,477.앰배서더 호텔 주변,37.55928802,127.00268555,ST-1783,1176.0,43.0,210.0,48.0,233.0,90.0
315,479.동대입구역 3번 출구,37.55937576,127.00602722,ST-1785,936.0,76.0,456.0,145.0,71.0,35.0
316,480.약수역 6번 출구,37.55432129,127.01070404,ST-1786,615.0,29.0,418.0,70.0,26.0,100.0
317,481.신당역 10번 출구,37.56703186,127.01579285,ST-1787,452.0,80.0,91.0,241.0,109.0,141.0
318,483.남산타운아파트 버스정류장,37.54758453,127.00643921,ST-1789,207.0,87.0,347.0,10.0,37.0,373.0
319,484.도동삼거리,37.55614853,126.97742462,ST-1790,637.0,139.0,292.0,204.0,303.0,109.0
320,485.서울역5번출구,37.55677032,126.97319794,ST-1791,277.0,68.0,544.0,146.0,131.0,172.0
321,486. 평창동주민센터 앞,37.60627365,126.96832275,ST-2019,75.0,99.0,95.0,89.0,2883.0,78.0
322,487.신석초교앞 교차로 교통섬,37.54364014,126.93830872,ST-2146,263.0,50.0,78.0,50.0,577.0,465.0
323,488.푸르메병원,37.58456802,126.88021088,ST-2147,27.0,97.0,107.0,59.0,1425.0,508.0
324,489.구룡근린공원,37.58320236,126.88276672,ST-2148,296.0,167.0,248.0,243.0,1167.0,324.0
325,490.가온문화공원,37.58207703,126.88766479,ST-2149,707.0,34.0,334.0,116.0,718.0,244.0
326,491.월드컵파크 4단지,37.57597733,126.88806915,ST-2150,443.0,103.0,345.0,223.0,862.0,120.0
327,492.성산시영아파트 후문,37.57313538,126.90184784,ST-2151,369.0,27.0,215.0,46.0,323.0,346.0
328,493.홍대입구역 6번출구,37.55657578,126.92885590,ST-2152,202.0,83.0,372.0,94.0,181.0,133.0
329,494.신수동주민센터,37.54724503,126.93502808,ST-2153,265.0,36.0,146.0,135.0,266.0,81.0
330,495.염리초등학교 앞,37.54243088,126.94699860,ST-2154,433.0,50.0,85.0,36.0,334.0,100.0
331,497.합정동주민센터 앞,37.55175400,126.91230011,ST-2156,103.0,48.0,201.0,62.0,279.0,101.0
332,498.연남동주민센터 앞,37.56465149,126.92212677,ST-2157,149.0,67.0,240.0,45.0,789.0,106.0
333,500. 어린이대공원역 3번출구 앞,37.54706955,127.07427216,ST-97,560.0,28.0,189.0,134.0,104.0,114.0
334,501. 광진구의회 앞,37.53730774,127.07035065,ST-98,295.0,54.0,287.0,24.0,358.0,36.0
335,502. 뚝섬유원지역 1번출구 앞,37.53186035,127.06719208,ST-99,910.0,54.0,383.0,145.0,48.0,308.0
336,505. 자양사거리 광진아크로텔 앞,37.53701019,127.08224487,ST-102,588.0,47.0,232.0,57.0,348.0,219.0
337,506. 금호 어울림 아파트 앞,37.54906082,127.05779266,ST-103,261.0,86.0,695.0,47.0,519.0,147.0
338,507. 성수아이에스비즈타워 앞,37.54820251,127.05711365,ST-104,160.0,18.0,674.0,66.0,411.0,137.0
339,508. 성수아카데미타워 앞,37.54516602,127.05751038,ST-105,30.0,30.0,501.0,34.0,142.0,249.0
340,509. 이마트 버스정류소 옆,37.53965378,127.05258942,ST-106,78.0,49.0,48.0,128.0,628.0,97.0
341,510. 서울숲 남문 버스정류소 옆,37.54122162,127.04380035,ST-107,684.0,163.0,311.0,44.0,281.0,122.0
342,511. 서울숲역 5번 출구 옆,37.54458237,127.04460907,ST-108,310.0,120.0,241.0,50.0,104.0,92.0
343,512. 뚝섬역 1번 출구 옆,37.54856110,127.04500580,ST-109,142.0,38.0,154.0,94.0,256.0,162.0
344,513. 뚝섬역 5번 출구 정류소 옆,37.54630661,127.04980469,ST-111,90.0,57.0,317.0,110.0,237.0,148.0
345,514. 성수사거리 버스정류장 앞,37.54257965,127.06330872,ST-112,571.0,142.0,207.0,120.0,574.0,154.0
346,515. 광양중학교 앞,37.53023529,127.08683014,ST-113,550.0,178.0,103.0,156.0,772.0,222.0
347,516. 광진메디칼 앞,37.54840469,127.06936646,ST-114,536.0,10.0,319.0,65.0,470.0,306.0
348,518. 청계천 박물관 앞,37.57152557,127.03535461,ST-234,458.0,44.0,295.0,140.0,381.0,33.0
349,519. 양지사거리,37.56699371,127.02991486,ST-235,516.0,39.0,191.0,58.0,289.0,289.0
350,520. 상왕십리역 4번 출구 앞,37.56385803,127.03031921,ST-236,225.0,70.0,88.0,22.0,112.0,352.0
351,521. 왕십리역 11번 출구 앞,37.56144714,127.03491974,ST-237,261.0,13.0,464.0,39.0,194.0,254.0
352,522. 금호역 1번출구 앞,37.54864120,127.01642609,ST-238,26.0,67.0,276.0,17.0,67.0,517.0
353,523. 옥수동성당 옆,37.54366302,127.01406097,ST-239,392.0,36.0,226.0,34.0,375.0,735.0
354,524. 래미안금호하이리버 아파트 102동 옆,37.55220032,127.02505493,ST-240,456.0,72.0,187.0,7.0,475.0,475.0
355,525. 한양대병원사거리,37.55805206,127.04035187,ST-241,158.0,109.0,306.0,145.0,318.0,96.0
356,526. 용답토속공원 앞,37.56351089,127.05672455,ST-242,518.0,78.0,409.0,103.0,532.0,663.0
357,529. 장한평역 8번 출구 앞,37.56137085,127.06365967,ST-243,330.0,28.0,383.0,57.0,25.0,656.0
358,530. 청계벽산아파트 앞,37.56874847,127.03040314,ST-244,683.0,64.0,242.0,155.0,488.0,366.0
359,533. 금남시장 교차로,37.54814911,127.02108765,ST-245,417.0,88.0,238.0,15.0,464.0,499.0
360,534. 금호사거리,37.54863358,127.02572632,ST-246,783.0,29.0,429.0,35.0,787.0,685.0
361,535. 응봉삼거리,37.55398560,127.03359222,ST-247,513.0,185.0,298.0,31.0,454.0,622.0
362,536. 행당역 2번출구 앞,37.55735016,127.02921295,ST-248,95.0,68.0,44.0,39.0,26.0,635.0
363,537. 한양대후문역 부근,37.56035614,127.04139709,ST-249,278.0,73.0,192.0,101.0,232.0,343.0
364,538. 답십리역 8번출구 앞,37.56764984,127.05115509,ST-250,192.0,62.0,399.0,87.0,145.0,1197.0
365,539. 군자교교차로,37.55979538,127.07420349,ST-252,562.0,72.0,706.0,13.0,546.0,374.0
366,540. 군자역 7번출구 베스트샵 앞,37.55603027,127.07864380,ST-253,226.0,70.0,568.0,64.0,146.0,49.0
367,542. 강변역 4번출구 뒤,37.53546524,127.09448242,ST-254,160.0,49.0,272.0,110.0,44.0,103.0
368,543. 구의공원(테크노마트 앞),37.53596878,127.09467316,ST-255,138.0,102.0,251.0,93.0,94.0,106.0
369,544. 광남중학교,37.54072952,127.10290527,ST-256,246.0,112.0,135.0,108.0,510.0,713.0
370,546. 잠실대교북단 교차로,37.53247833,127.08509064,ST-257,375.0,8.0,214.0,6.0,529.0,299.0
371,548. 자양나들목,37.52976990,127.07485962,ST-258,581.0,103.0,83.0,139.0,739.0,463.0
372,549. 아차산역 3번출구,37.55122375,127.08970642,ST-259,378.0,37.0,222.0,9.0,114.0,156.0
373,550. 서울시설공단 앞,37.57164001,127.03565979,ST-251,431.0,36.0,307.0,140.0,354.0,61.0
374,551. 구의삼성쉐르빌 앞,37.54006195,127.09449768,ST-377,56.0,41.0,374.0,27.0,549.0,430.0
375,552. 대림아크로리버 앞,37.53657913,127.09297180,ST-378,298.0,18.0,91.0,170.0,225.0,270.0
376,553. 중곡 성원아파트 앞,37.57125473,127.07980347,ST-379,826.0,100.0,476.0,162.0,667.0,412.0
377,555. 구의3동주민센터,37.53784943,127.09217072,ST-381,206.0,40.0,73.0,124.0,378.0,409.0
378,556. 달맞이공원,37.54205322,127.02040100,ST-357,833.0,271.0,427.0,223.0,224.0,882.0
379,557. 도선동 주민센터 앞,37.56764221,127.02569580,ST-358,536.0,58.0,168.0,35.0,475.0,422.0
380,558. 성동광진 교육지원청 앞,37.56460571,127.03652191,ST-359,376.0,28.0,368.0,101.0,293.0,310.0
381,559. 왕십리역 4번 출구 건너편,37.56109619,127.03679657,ST-360,184.0,18.0,329.0,42.0,33.0,127.0
382,560. 비전교회 앞,37.55120468,127.06893158,ST-361,849.0,71.0,312.0,97.0,620.0,290.0
383,561. 서울숲역 2번출구 앞,37.54281616,127.04467010,ST-362,506.0,51.0,239.0,40.0,92.0,105.0
384,562. 군자지하보도 앞,37.55924606,127.07341003,ST-363,608.0,88.0,659.0,101.0,587.0,460.0
385,563. 성동세무서 건너편,37.54791260,127.06275177,ST-364,570.0,66.0,386.0,129.0,696.0,188.0
386,564. 금호역 3번출구,37.54792786,127.01557159,ST-365,130.0,58.0,247.0,67.0,43.0,625.0
387,565. 옥수역 3번출구,37.54136658,127.01776123,ST-366,612.0,40.0,207.0,30.0,39.0,663.0
388,567. 성수역 2번출구 앞,37.54459000,127.05708313,ST-368,51.0,10.0,482.0,12.0,89.0,208.0
389,568. 청계8가사거리 부근,37.57110214,127.02355957,ST-369,157.0,112.0,539.0,56.0,427.0,330.0
390,569. 응봉현대아파트 정류소,37.54958344,127.03024292,ST-370,785.0,286.0,327.0,65.0,377.0,987.0
391,571. 어린이대공원역6번출구,37.54849625,127.07476044,ST-382,706.0,166.0,32.0,237.0,59.0,135.0
392,572. 국립정신 건강센터 앞,37.56538010,127.08650970,ST-383,487.0,99.0,229.0,63.0,203.0,196.0
393,573. 구의문주차장 앞,37.54523087,127.08473206,ST-384,358.0,78.0,297.0,41.0,888.0,600.0
394,574. 아차산역4번출구,37.55184937,127.08898163,ST-385,300.0,58.0,229.0,95.0,68.0,136.0
395,575. 대원중고교 입구(대하빌딩),37.56429291,127.08693695,ST-386,498.0,30.0,203.0,46.0,294.0,235.0
396,576. 광나루역 3번 출구,37.54483032,127.10426331,ST-387,253.0,67.0,349.0,161.0,83.0,342.0
397,577. 광진청소년수련관,37.54654694,127.10613251,ST-388,98.0,118.0,374.0,101.0,268.0,186.0
398,578. 성동세무서 부근,37.54829025,127.06246185,ST-371,576.0,59.0,430.0,118.0,698.0,154.0
399,579. 마장역 4번출구,37.56520462,127.04184723,ST-372,476.0,98.0,323.0,72.0,144.0,467.0
400,582. 경일중학교 앞,37.54317856,127.04907990,ST-375,410.0,110.0,58.0,43.0,386.0,144.0
401,584. 광진광장 교통섬,37.54782867,127.07263184,ST-445,538.0,34.0,202.0,82.0,179.0,79.0
402,585. 성수2가1동 공영주차장 인근,37.53680801,127.05548859,ST-446,404.0,33.0,388.0,139.0,865.0,234.0
403,586. 마장동 주민센터,37.56594086,127.04539490,ST-447,713.0,197.0,331.0,122.0,213.0,761.0
404,587. 유니베라 앞,37.54541779,127.05264282,ST-482,347.0,98.0,308.0,87.0,316.0,127.0
405,588. 뚝섬 유원지역,37.53268814,127.06749725,ST-483,821.0,43.0,290.0,135.0,140.0,282.0
406,589. 성수역3번출구,37.54415894,127.05665588,ST-506,111.0,59.0,447.0,14.0,70.0,149.0
407,590. 건국대학교 (입학정보관),37.53989029,127.07336426,ST-972,164.0,143.0,469.0,28.0,227.0,147.0
408,591. 건국대학교 (행정관),37.54277802,127.07537079,ST-973,509.0,145.0,190.0,83.0,432.0,46.0
409,592. 건국대학교 학생회관,37.54191208,127.07763672,ST-974,539.0,52.0,171.0,162.0,588.0,63.0
410,593.자양중앙나들목,37.52858734,127.07787323,ST-980,447.0,167.0,276.0,49.0,1032.0,730.0
411,594. 중랑물재생센터(서울새활용플라자),37.55836487,127.05690765,ST-967,1009.0,443.0,383.0,352.0,675.0,123.0
412,600. 휘경2동 주민센터,37.58991241,127.06867981,ST-260,962.0,205.0,383.0,217.0,825.0,640.0
413,601. 용신동주민센터,37.57594681,127.03736115,ST-261,191.0,88.0,599.0,90.0,224.0,209.0
414,602. 장안동 사거리,37.57217407,127.07138824,ST-262,732.0,92.0,247.0,54.0,1336.0,562.0
415,604. 답십리초등학교 옆 공원,37.56965637,127.05596161,ST-264,353.0,83.0,111.0,15.0,422.0,721.0
416,605. 신설동역8번출구,37.57419968,127.02649689,ST-265,521.0,39.0,297.0,116.0,154.0,192.0
417,606. 휘경공고앞,37.58462524,127.07028961,ST-266,360.0,185.0,91.0,177.0,1192.0,1013.0
418,607. 신이문역 2번출구,37.60271072,127.06786346,ST-267,707.0,108.0,309.0,90.0,111.0,1235.0
419,608. 전농삼성아파트,37.58131027,127.05534363,ST-268,601.0,231.0,134.0,64.0,592.0,228.0
420,609. 제기2교,37.58774567,127.03738403,ST-269,963.0,114.0,250.0,57.0,313.0,203.0
421,610. 동대문중 교차로,37.57308578,127.05216217,ST-270,569.0,79.0,181.0,57.0,575.0,910.0
422,612. 시립동부병원 앞 사거리,37.57366562,127.03081512,ST-271,711.0,20.0,327.0,35.0,535.0,445.0
423,613. 신설동역 10번출구 앞,37.57527161,127.02346802,ST-272,459.0,104.0,270.0,59.0,121.0,115.0
424,614. 용두동 사거리,37.57768631,127.03101349,ST-273,762.0,120.0,258.0,6.0,351.0,365.0
425,615. 용두동 래미안허브리츠아파트 앞,37.57638168,127.03511047,ST-274,377.0,133.0,557.0,86.0,199.0,273.0
426,616. 서울시립대 앞,37.58256149,127.05436707,ST-275,563.0,97.0,270.0,32.0,525.0,233.0
427,617. 청솔우성아파트 앞,37.57420349,127.05769348,ST-276,139.0,96.0,297.0,3.0,921.0,601.0
428,621. 동대문중학교 옆,37.57489014,127.05353546,ST-389,389.0,128.0,77.0,128.0,780.0,807.0
429,622. 전농사거리 교통섬,37.57779312,127.05783081,ST-390,260.0,74.0,325.0,62.0,899.0,573.0
430,623. 서울시립대 정문 앞,37.58369827,127.05385590,ST-391,594.0,19.0,364.0,158.0,533.0,288.0
431,624. 전농동 동아아파트 앞,37.57418823,127.04589081,ST-392,630.0,21.0,181.0,5.0,494.0,710.0
432,625. 답십리초등학교 앞(현대시장 옆),37.56819153,127.05717468,ST-393,357.0,111.0,161.0,35.0,429.0,696.0
433,626. 군자교 서측 녹지대,37.56115341,127.07096863,ST-394,354.0,108.0,540.0,197.0,643.0,483.0
434,627. 장안동삼거리 교통섬,37.57863235,127.07190704,ST-395,323.0,83.0,248.0,136.0,1419.0,1056.0
435,628. 휘봉고등학교 앞,37.58681488,127.06754303,ST-396,664.0,111.0,137.0,180.0,866.0,940.0
436,630. 동대문구 보건소,37.57485199,127.04030609,ST-397,137.0,20.0,317.0,71.0,199.0,405.0
437,631. 답십리역 1번출구,37.56818390,127.05127716,ST-398,203.0,26.0,375.0,85.0,175.0,1166.0
438,633. 청량리 기업은행 앞,37.58040619,127.04482269,ST-400,338.0,86.0,322.0,91.0,41.0,246.0
439,634. 외국어대 정문 앞,37.59601974,127.05982971,ST-401,327.0,32.0,243.0,117.0,342.0,455.0
440,635. 시조사 앞 (청량고정문 옆),37.58751678,127.05277252,ST-402,634.0,147.0,159.0,115.0,499.0,10.0
441,636. 세종대왕기념관 교차로,37.59090042,127.04258728,ST-403,948.0,196.0,408.0,436.0,556.0,30.0
442,637. KAIST 경영대학 앞,37.59161377,127.04579163,ST-404,655.0,344.0,137.0,338.0,847.0,72.0
443,638. 서울시립대 정보기술관,37.58300781,127.06097412,ST-405,589.0,109.0,174.0,494.0,775.0,353.0
444,639. 서울시립대 후문,37.58519745,127.06095123,ST-406,832.0,53.0,231.0,382.0,554.0,433.0
445,640. 청량리역 2번출구,37.58255005,127.04460144,ST-407,435.0,59.0,247.0,30.0,279.0,267.0
446,641. 용두역 4번출구,37.57375336,127.03853607,ST-408,100.0,124.0,408.0,93.0,41.0,407.0
447,642. 신답역 사거리,37.57035446,127.04843140,ST-409,547.0,120.0,549.0,96.0,132.0,1121.0
448,643. 동대문구민체육센터 (육교아래),37.56697083,127.07429504,ST-410,707.0,149.0,223.0,87.0,892.0,91.0
449,646. 장한평역 1번출구,37.56196594,127.06450653,ST-1298,242.0,14.0,372.0,29.0,81.0,756.0
450,647. 신이문역 1번출구,37.60279846,127.06726837,ST-1299,675.0,72.0,259.0,87.0,113.0,1199.0
451,648. 장안동위더스빌옆,37.56669998,127.06242371,ST-1300,36.0,24.0,261.0,135.0,576.0,487.0
452,650. 중랑교사거리,37.59153366,127.06774139,ST-1302,928.0,69.0,573.0,45.0,635.0,643.0
453,652. 답십리 래미안엘파인아파트 입구,37.57653046,127.06594086,ST-1447,250.0,55.0,422.0,107.0,1587.0,572.0
454,654. 전농동 텃골공원,37.57762146,127.05210876,ST-1449,426.0,75.0,323.0,27.0,476.0,495.0
455,656. 영휘원 교차로,37.58723831,127.04313660,ST-1628,910.0,176.0,247.0,84.0,700.0,385.0
456,657. 동대문롯데캐슬아파트 앞,37.57551956,127.04877472,ST-1629,531.0,156.0,268.0,56.0,534.0,556.0
457,659. 제기역1번출구,37.57835007,127.03338623,ST-1631,542.0,44.0,352.0,85.0,139.0,287.0
458,660. 동의보감타워,37.57799911,127.03762817,ST-1632,208.0,60.0,494.0,18.0,237.0,19.0
459,661. 경희대학교 청운관,37.59460068,127.05196381,ST-1625,173.0,29.0,44.0,177.0,756.0,243.0
460,663. 외대앞역 4번출구,37.59489059,127.06302643,ST-1671,411.0,23.0,543.0,66.0,164.0,764.0
461,664. 서울시립대 건설공학관,37.58412933,127.05793762,ST-1758,757.0,190.0,79.0,333.0,599.0,160.0
462,665.이문동 쌍용아파트 정문,37.59960556,127.06864166,ST-2265,610.0,142.0,475.0,22.0,265.0,908.0
463,666.이문대성유니드아파트 앞,37.60362244,127.07083130,ST-2266,751.0,310.0,555.0,123.0,365.0,1225.0
464,667.청량차도 육교 밑,37.58659363,127.04699707,ST-2267,713.0,99.0,253.0,92.0,607.0,511.0
465,668.서울축산농협(장안지점),37.56799698,127.06877899,ST-2268,592.0,60.0,230.0,60.0,839.0,412.0
466,669.청계한신휴플러스앞 삼거리,37.57214737,127.04460907,ST-2269,584.0,177.0,167.0,76.0,336.0,844.0
467,670.삼육서울병원 버스정류장,37.58968735,127.06140900,ST-2270,846.0,65.0,294.0,47.0,254.0,614.0
468,671.대광빌딩,37.57734299,127.02337646,ST-2271,414.0,126.0,95.0,73.0,88.0,300.0
469,672.대광고등학교,37.57875061,127.02402496,ST-2272,313.0,139.0,41.0,97.0,254.0,171.0
470,673.안암골벽산아파트(후문),37.58407974,127.03103638,ST-2273,911.0,45.0,210.0,44.0,294.0,118.0
471,674.고대앞사거리 교통섬,37.58655167,127.03314209,ST-2274,985.0,97.0,338.0,86.0,346.0,328.0
472,676.FITI시험연구원 앞,37.58143234,127.03547668,ST-2276,427.0,148.0,120.0,124.0,364.0,208.0
473,677.청량리역 4번 5번출구 사이,37.58015060,127.04579926,ST-2277,252.0,83.0,292.0,74.0,95.0,162.0
474,678.장안힐스테이트(아) 앞,37.57655716,127.07431030,ST-2278,594.0,90.0,167.0,33.0,1142.0,863.0
475,679.전농SK아파트 앞,37.57787704,127.06168365,ST-2279,80.0,100.0,176.0,7.0,1212.0,696.0
476,680.꿈마루어린이도서관 앞,37.59238434,127.05741119,ST-2280,407.0,34.0,135.0,55.0,290.0,239.0
477,681.서울특별시 동부교육지원청(육교),37.57983780,127.05637360,ST-2281,457.0,122.0,76.0,56.0,701.0,344.0
478,700. KB국민은행 염창역 지점 앞,37.54684830,126.87277222,ST-308,433.0,98.0,361.0,114.0,186.0,104.0
479,701. 목동사거리 부근,37.53280258,126.86392975,ST-309,441.0,73.0,388.0,73.0,742.0,735.0
480,702. 목4동주민센터 옆,37.53254318,126.86872864,ST-310,195.0,83.0,443.0,41.0,798.0,401.0
481,703. 오목교역 7번출구 앞,37.52362823,126.87524414,ST-311,254.0,38.0,293.0,33.0,100.0,184.0
482,704. 남부법원검찰청 교차로,37.52325439,126.86490631,ST-312,186.0,60.0,147.0,10.0,320.0,620.0
483,706. 신정네거리역,37.52188110,126.85175323,ST-313,319.0,82.0,342.0,78.0,209.0,538.0
484,708. 서울출입국관리사무소 앞,37.51897049,126.86996460,ST-315,270.0,70.0,258.0,44.0,777.0,180.0
485,709. 신정3동 현장민원실 앞,37.51158524,126.84156036,ST-316,269.0,130.0,269.0,101.0,1386.0,908.0
486,710. 금옥여고보도육교,37.50971222,126.84416962,ST-317,74.0,91.0,76.0,95.0,1398.0,929.0
487,711. 신일해피트리아파트 앞,37.51705933,126.84848785,ST-318,460.0,98.0,369.0,100.0,523.0,1030.0
488,712. 강월초교입구 사거리,37.51699829,126.83831787,ST-319,668.0,53.0,199.0,79.0,1337.0,242.0
489,713. 양서중학교 옆,37.53304672,126.82995605,ST-320,754.0,109.0,97.0,87.0,1331.0,107.0
490,714. 한국SGI 양천문화회관 앞,37.53254700,126.83080292,ST-321,824.0,52.0,160.0,56.0,1322.0,15.0
491,716.신정6동 주민센터 인근,37.51731873,126.86431885,ST-428,399.0,62.0,399.0,14.0,560.0,128.0
492,719. 홍익병원앞 교차로,37.53036880,126.86425781,ST-431,287.0,27.0,631.0,12.0,470.0,547.0
493,720. 서울강월초등학교 앞,37.51619720,126.83489990,ST-432,429.0,165.0,80.0,9.0,1651.0,360.0
494,722. 경서농협 버스정류장(우리은행신정동지점방향),37.52151108,126.85738373,ST-993,138.0,53.0,305.0,80.0,406.0,417.0
495,723. SBS방송국,37.52916336,126.87274933,ST-994,130.0,95.0,246.0,175.0,561.0,148.0
496,724. 계남공원 입구 주출입구 좌측,37.51068115,126.85739899,ST-995,291.0,282.0,237.0,282.0,759.0,805.0
497,725. 양강중학교앞 교차로,37.52433395,126.85054779,ST-996,553.0,115.0,112.0,59.0,496.0,511.0
498,726. 목동3단지 시내버스정류장,37.53438950,126.86959839,ST-997,211.0,35.0,268.0,35.0,1015.0,562.0
499,729. 서부식자재마트 건너편,37.51037979,126.86679840,ST-1000,320.0,137.0,103.0,120.0,242.0,304.0
500,731. 서울시 도로환경관리센터,37.52989960,126.87654114,ST-1002,79.0,129.0,428.0,191.0,605.0,125.0
501,732. 신월중학교,37.53955078,126.82830048,ST-1003,32.0,115.0,177.0,46.0,1099.0,270.0
502,733. 신정이펜하우스314동,37.51409912,126.83100128,ST-1004,255.0,103.0,88.0,180.0,1945.0,760.0
503,734. 신트리공원 입구,37.51395035,126.85605621,ST-1005,399.0,84.0,218.0,77.0,750.0,696.0
504,735. 영도초등학교,37.53637695,126.87151337,ST-1006,207.0,129.0,66.0,48.0,1214.0,708.0
505,736. 오솔길공원,37.52219009,126.83670044,ST-1007,1111.0,150.0,378.0,189.0,1366.0,361.0
506,737. 장수공원,37.52256012,126.84947968,ST-1008,487.0,102.0,236.0,103.0,397.0,663.0
507,739. 신월사거리,37.53620148,126.82779694,ST-1010,400.0,77.0,224.0,41.0,1271.0,107.0
508,740. 으뜸공원,37.53636932,126.83171082,ST-1011,467.0,28.0,428.0,75.0,970.0,96.0
509,741. 화곡로 입구 교차로,37.53952026,126.82540131,ST-1012,279.0,90.0,183.0,98.0,1351.0,148.0
510,742. 등촌역 5번 출구 뒤,37.55073166,126.86457825,ST-1013,86.0,24.0,378.0,3.0,88.0,621.0
511,743. 현대6차아파트 101동 옆,37.50889969,126.84268188,ST-1014,98.0,85.0,215.0,121.0,1547.0,989.0
512,744. 신목동역 2번 출구,37.54384232,126.88254547,ST-1015,798.0,74.0,99.0,156.0,69.0,492.0
513,745. 강서초등학교,37.52228165,126.83969879,ST-1016,1186.0,74.0,114.0,27.0,1188.0,436.0
514,746. 목동2단지 상가,37.53650284,126.87774658,ST-1017,272.0,63.0,432.0,18.0,985.0,665.0
515,747. 목동3단지 상가,37.53458023,126.87564850,ST-1018,324.0,32.0,356.0,31.0,1115.0,419.0
516,748. 목동운동장,37.53025055,126.87930298,ST-1019,308.0,308.0,631.0,307.0,726.0,326.0
517,749. 이대목동병원보도육교,37.53722763,126.88661194,ST-1350,410.0,87.0,204.0,144.0,603.0,519.0
518,750. 연의근린공원 건너편,37.51215744,126.83562469,ST-1398,221.0,117.0,95.0,165.0,1769.0,764.0
519,752. 성원2차 아파트,37.54218292,126.86330414,ST-1400,329.0,18.0,156.0,6.0,969.0,815.0
520,754. 목동1단지아파트 118동 앞,37.54114151,126.87667847,ST-1495,630.0,143.0,85.0,140.0,665.0,171.0
521,755. 목동1단지아파트 상가 앞,37.53786850,126.88140869,ST-1496,144.0,15.0,130.0,14.0,728.0,647.0
522,756. 목동주차장,37.52667999,126.87616730,ST-1497,292.0,167.0,229.0,166.0,249.0,119.0
523,757. 신정이펜하우스 1단지아파트 입구 사거리,37.51427841,126.82874298,ST-1498,434.0,239.0,289.0,260.0,1779.0,900.0
524,758. 한사랑교회 앞,37.51472092,126.85919952,ST-1499,162.0,146.0,278.0,106.0,632.0,409.0
525,759. 보아스아파트 앞,37.52407074,126.83860016,ST-1500,1081.0,67.0,274.0,30.0,1098.0,584.0
526,760. 잣절보도육교 아래,37.50682068,126.84429932,ST-1501,321.0,62.0,218.0,112.0,1379.0,764.0
527,762. 오목로 무중력지대 앞,37.52474213,126.87766266,ST-1503,298.0,109.0,430.0,93.0,209.0,303.0
528,763. 목동11단지 아파트,37.51065826,126.85916138,ST-1504,180.0,311.0,92.0,184.0,611.0,723.0
529,764. 목동청소년수련관,37.53102875,126.87589264,ST-1505,191.0,70.0,507.0,60.0,722.0,48.0
530,765. 오목교역 3번출구,37.52477646,126.87548065,ST-1731,343.0,28.0,284.0,6.0,30.0,182.0
531,766. 신목동역 3번출구,37.54394913,126.88346100,ST-1736,819.0,86.0,142.0,218.0,49.0,573.0
532,767.신정숲속마을아파트,37.50574493,126.83631134,ST-1993,755.0,577.0,613.0,544.0,1466.0,743.0
533,768.목동5단지아파트 501동,37.53566742,126.88158417,ST-1994,116.0,106.0,275.0,61.0,966.0,766.0
534,769.CBS방송국 앞,37.52785492,126.87467194,ST-1995,200.0,47.0,148.0,103.0,372.0,164.0
535,770.목동역5번출구 교통정보센터 앞,37.52571487,126.86486816,ST-1996,105.0,54.0,237.0,73.0,51.0,480.0
536,771.목동아파트 703동 앞,37.52820587,126.87016296,ST-1997,154.0,44.0,256.0,35.0,540.0,133.0
537,"773.염창역 3, 4번 출구 사이",37.54670715,126.87457275,ST-1999,482.0,20.0,307.0,98.0,40.0,86.0
538,774.등촌역 4번 출구 ,37.54950714,126.86721802,ST-2000,235.0,28.0,227.0,52.0,198.0,356.0
539,775.세종그랑시아 앞(102동),37.53837585,126.86383057,ST-2001,729.0,125.0,128.0,38.0,1360.0,1123.0
540,776.목마공원,37.53874207,126.88568115,ST-2002,397.0,166.0,208.0,153.0,656.0,645.0
541,777.신월6차보람아파트 앞,37.53012848,126.83477783,ST-2003,1053.0,71.0,437.0,62.0,1057.0,428.0
542,779. 신정1동 주민센터 앞,37.51854324,126.85388184,ST-2005,105.0,84.0,331.0,91.0,205.0,763.0
543,780.신정교 하부,37.51733780,126.87764740,ST-2006,525.0,191.0,441.0,124.0,542.0,364.0
544,781.신정보도육교 아래,37.51759338,126.87655640,ST-2007,455.0,108.0,347.0,33.0,638.0,375.0
545,782.서남병원 후문,37.51167297,126.83274078,ST-2008,107.0,46.0,193.0,78.0,1986.0,893.0
546,"785.양천구청, 보건소 사잇길",37.51732635,126.86630249,ST-2011,366.0,113.0,502.0,72.0,550.0,192.0
547,786.목동아파트 8단지 상가동 앞,37.52007294,126.86830139,ST-2012,454.0,56.0,296.0,58.0,747.0,199.0
548,787.양천아파트 입구,37.50790405,126.86264801,ST-2013,159.0,52.0,162.0,51.0,566.0,711.0
549,788.양천구청역 2번출구 옆,37.51237869,126.86555481,ST-2014,215.0,200.0,181.0,196.0,14.0,406.0
550,790.화곡고가 사거리,37.52760696,126.84875488,ST-2015,469.0,172.0,294.0,152.0,451.0,715.0
551,791.현대하이페리온,37.52490616,126.86978912,ST-2016,85.0,12.0,215.0,22.0,476.0,225.0
552,792.목동트라팰리스 웨스턴에비뉴,37.52537155,126.87092590,ST-2017,59.0,97.0,228.0,12.0,398.0,180.0
553,793.목동5단지아파트 534동,37.53302002,126.87789917,ST-2039,443.0,134.0,614.0,97.0,969.0,329.0
554,794.양천문화회관,37.51686478,126.86296082,ST-2395,281.0,113.0,412.0,64.0,553.0,41.0
555,795.양천 해누리타운,37.51584244,126.86411285,ST-2396,293.0,161.0,545.0,113.0,408.0,1.0
556,796.목동아파트 14단지 B상가 앞,37.51466370,126.87194061,ST-2397,246.0,51.0,240.0,13.0,604.0,454.0
557,797.목동아파트 1422동 1434동 사잇길,37.51515579,126.87248993,ST-2398,208.0,74.0,230.0,45.0,672.0,519.0
558,800. 목월공원 앞,37.53243256,126.95474243,ST-322,794.0,108.0,236.0,134.0,922.0,249.0
559,802. 한강진역 2번 출구 앞,37.54115295,127.00221252,ST-324,761.0,50.0,308.0,40.0,156.0,35.0
560,803. 한남초교 앞 보도육교,37.53813934,127.00409698,ST-325,687.0,82.0,158.0,87.0,275.0,82.0
561,805. 문배어린이공원 앞,37.53675842,126.97000122,ST-326,286.0,86.0,258.0,138.0,364.0,274.0
562,806. 전자랜드 본관 앞,37.53306580,126.96073151,ST-327,346.0,108.0,538.0,101.0,502.0,54.0
563,807. 서울역 12번 출구 앞,37.55227661,126.97268677,ST-328,468.0,82.0,648.0,50.0,83.0,46.0
564,808. 서빙고동 금호맨션 앞,37.52050400,126.98973846,ST-329,534.0,112.0,236.0,111.0,156.0,531.0
565,809. 한남 유수지 복개주차장,37.53016663,127.00743866,ST-330,258.0,15.0,978.0,94.0,176.0,161.0
566,810. 이태원지하보도,37.53841019,126.98664856,ST-331,1697.0,46.0,295.0,70.0,409.0,95.0
567,811. 녹사평역1번출구,37.53507996,126.98538208,ST-332,1626.0,154.0,258.0,269.0,110.0,109.0
568,812. 용산전쟁기념관,37.53483963,126.97766113,ST-333,983.0,337.0,460.0,228.0,329.0,143.0
569,813. 삼각지역 3번출구,37.53351212,126.97227478,ST-334,675.0,101.0,233.0,89.0,117.0,105.0
570,815. LIG강촌아파트 103동앞,37.51850891,126.97879791,ST-335,593.0,89.0,286.0,74.0,571.0,345.0
571,816. 신용산역 6번출구 앞,37.53014755,126.96848297,ST-435,243.0,41.0,624.0,105.0,108.0,113.0
572,817. 삼각지역 4번출구 앞,37.53345108,126.97173309,ST-436,627.0,103.0,249.0,119.0,151.0,84.0
573,818. 숙명여대 입구 교차로,37.54489517,126.96938324,ST-437,746.0,89.0,186.0,15.0,243.0,110.0
574,819. 선린인터넷 고등학교,37.54165268,126.97050476,ST-438,455.0,14.0,118.0,11.0,141.0,124.0
575,820. 청파동입구 교차로,37.54902649,126.97194672,ST-439,789.0,36.0,448.0,31.0,448.0,295.0
576,822. 이촌1동 마을공원,37.52204132,126.96552277,ST-440,480.0,173.0,279.0,156.0,709.0,308.0
577,823. 효창동주민센터 앞,37.54232025,126.96195984,ST-441,655.0,80.0,178.0,80.0,338.0,174.0
578,825. 서빙고동 주민센터 앞,37.52033615,126.99426270,ST-442,863.0,155.0,205.0,108.0,524.0,697.0
579,826. 서울역 서부교차로2,37.55536652,126.96864319,ST-946,155.0,58.0,230.0,131.0,246.0,188.0
580,827. 국군복지단,37.54188538,126.97966003,ST-1324,1148.0,421.0,161.0,419.0,731.0,561.0
581,828. 숙대입구역 8번,37.54407883,126.97200012,ST-1325,752.0,48.0,180.0,14.0,58.0,158.0
582,829. 베르가모앞,37.52293015,126.96169281,ST-1326,668.0,205.0,392.0,113.0,789.0,270.0
583,830. 청암자이아파트앞,37.53442383,126.94857025,ST-1327,590.0,85.0,315.0,145.0,617.0,340.0
584,831. 이태원관광특구입구,37.53427887,126.98856354,ST-1328,1530.0,30.0,195.0,42.0,184.0,99.0
585,832. 이촌1동 주민센터 뒤,37.52128220,126.97346497,ST-1339,665.0,101.0,201.0,81.0,125.0,350.0
586,834. 효창공원앞역 3번출구 뒤,37.53900909,126.96138000,ST-1341,541.0,36.0,201.0,69.0,33.0,128.0
587,835. 남영역 건너편,37.54198074,126.97154236,ST-1342,542.0,40.0,119.0,42.0,158.0,101.0
588,836. 현대자동차서비스 앞,37.53142166,126.95149994,ST-1343,857.0,158.0,383.0,126.0,1030.0,228.0
589,837. 한남나들목 입구,37.52906036,127.00672913,ST-1344,340.0,152.0,848.0,86.0,222.0,296.0
590,838. 숙대입구역 4번출구,37.54446030,126.97238922,ST-1376,807.0,29.0,231.0,54.0,28.0,171.0
591,839. 보광동 삼성리버빌아파트 앞,37.52400970,127.00144958,ST-1441,962.0,226.0,168.0,246.0,912.0,399.0
592,840. 용산 파크타워 앞,37.52365112,126.97026825,ST-1442,282.0,112.0,302.0,112.0,320.0,114.0
593,841. 신용산역 1번 출구,37.52960968,126.96887207,ST-1443,272.0,91.0,591.0,122.0,88.0,64.0
594,843. 녹사평역 광장,37.53379822,126.98867035,ST-1445,1513.0,63.0,250.0,93.0,213.0,131.0
595,844. 이촌2동 동원베네스트 아파트 앞,37.52714920,126.95516205,ST-1446,980.0,43.0,815.0,149.0,885.0,241.0
596,845. 용산 선인상가,37.53269958,126.96437836,ST-1615,62.0,67.0,426.0,410.0,325.0,311.0
597,846. 용산중학교,37.54650116,126.98094940,ST-1721,1419.0,38.0,53.0,47.0,808.0,406.0
598,847. 국방부민원실옆,37.53452301,126.97750092,ST-2171,985.0,328.0,454.0,201.0,327.0,174.0
599,848. 삼각지12번 출구,37.53488922,126.97562408,ST-2172,818.0,167.0,283.0,115.0,160.0,145.0
600,849. 삼각지 자이아파트,37.53607941,126.97341919,ST-2173,585.0,50.0,93.0,80.0,76.0,123.0
601,850. KCC용산월츠타워 ,37.53739929,126.96892548,ST-2174,167.0,17.0,358.0,21.0,410.0,367.0
602,851.효창 푸르지오 앞,37.54047775,126.95811462,ST-2175,442.0,121.0,122.0,57.0,317.0,244.0
603,852.청암자이APT(103동),37.53452682,126.94718170,ST-2176,646.0,122.0,416.0,240.0,569.0,430.0
604,853.용산역 맞은편,37.52856827,126.96569061,ST-2177,124.0,86.0,375.0,89.0,141.0,105.0
605,854.HID 유족동지회 앞,37.53872681,127.00154877,ST-2178,829.0,105.0,307.0,77.0,119.0,45.0
606,855.이촌역5번출구 앞,37.52272415,126.97277069,ST-2179,510.0,73.0,305.0,113.0,76.0,183.0
607,857. 현대 안성타워,37.53502274,126.99805450,ST-2181,750.0,60.0,298.0,67.0,333.0,20.0
608,858.녹사평역3번 출구,37.53440857,126.98689270,ST-2182,1678.0,39.0,204.0,164.0,46.0,45.0
609,859.남산공원 야외식물원 앞,37.54188538,126.99586487,ST-2183,1324.0,278.0,554.0,201.0,571.0,247.0
610,860.LG한강 자이아파트 앞,37.52069473,126.97097778,ST-2184,602.0,148.0,426.0,58.0,296.0,371.0
611,863.이촌역2번 출구,37.52177048,126.97700500,ST-2187,878.0,236.0,122.0,203.0,229.0,269.0
612,864.순천향대학병원(한남오거리),37.53514099,127.00600433,ST-2188,349.0,118.0,482.0,214.0,637.0,113.0
613,865.하얏트호텔 앞,37.54079437,126.99784851,ST-2189,1148.0,273.0,643.0,183.0,363.0,150.0
614,866.브라운스톤 남산아파트,37.55154800,126.97686005,ST-2190,768.0,51.0,472.0,139.0,407.0,202.0
615,867.서빙고역 광장(1번출구),37.51990891,126.98923492,ST-2191,457.0,102.0,304.0,117.0,82.0,454.0
616,869.노들섬 동측 앞,37.51729584,126.95914459,ST-2239,1150.0,105.0,837.0,631.0,740.0,116.0
617,870.노들섬 서측 앞,37.51731873,126.95829773,ST-2240,1172.0,43.0,819.0,594.0,690.0,89.0
618,900. 은평예술회관,37.60394287,126.92769623,ST-448,521.0,87.0,128.0,86.0,497.0,33.0
619,901. 응암1동사무소,37.60097504,126.92695618,ST-449,476.0,56.0,372.0,38.0,686.0,88.0
620,902. 진관동 은빛초등학교,37.64310837,126.91822052,ST-450,659.0,16.0,98.0,31.0,679.0,686.0
621,903. 은평뉴타운 아이파크,37.64586639,126.92739105,ST-451,973.0,100.0,157.0,47.0,1221.0,1064.0
622,904. 은평뉴타운 푸르지오,37.64867401,126.93070221,ST-452,546.0,139.0,382.0,49.0,1487.0,653.0
623,905. 구파발역 2번출구,37.63623428,126.91899872,ST-453,134.0,54.0,401.0,49.0,25.0,115.0
624,906. 연신내역 5번출구,37.61721039,126.91957855,ST-454,259.0,45.0,369.0,30.0,164.0,252.0
625,907. CJ 드림시티,37.59949112,126.91686249,ST-455,305.0,59.0,143.0,43.0,160.0,660.0
626,908. 구산역 4번출구,37.61318588,126.91735077,ST-456,224.0,46.0,202.0,6.0,215.0,672.0
627,909. 백련산 힐스테이트 3차,37.58699417,126.92288208,ST-457,736.0,129.0,177.0,80.0,926.0,610.0
628,911. 은평평화공원(역촌역4번출구),37.60558319,126.92293549,ST-459,70.0,90.0,330.0,113.0,72.0,483.0
629,912. 응암오거리,37.58966064,126.91694641,ST-460,454.0,33.0,452.0,56.0,325.0,1055.0
630,913. 이마트 버스정류장(서부경찰서 방면),37.60070038,126.92012787,ST-461,47.0,110.0,287.0,94.0,473.0,539.0
631,914. 새절역 2번출구,37.59079742,126.91365051,ST-462,512.0,91.0,265.0,37.0,9.0,923.0
632,915. 증산역 4번출구,37.58438110,126.90989685,ST-463,389.0,26.0,271.0,86.0,78.0,252.0
633,916. 평생학습관 앞,37.60784912,126.92132568,ST-464,219.0,115.0,517.0,42.0,224.0,716.0
634,917. 녹번역 4번출구,37.60129929,126.93534851,ST-465,298.0,83.0,117.0,151.0,69.0,673.0
635,919. 서울혁신파크,37.60702515,126.93331146,ST-467,484.0,69.0,164.0,117.0,427.0,146.0
636,921. 신도고등학교,37.63001633,126.91902924,ST-469,535.0,276.0,62.0,261.0,712.0,769.0
637,922. 연신내역 4번출구,37.61780167,126.92196655,ST-470,93.0,58.0,395.0,14.0,155.0,366.0
638,923. 국민은행 연서지점,37.62094879,126.92563629,ST-471,106.0,24.0,281.0,21.0,444.0,655.0
639,924. 메뚜기다리,37.62851715,126.92958069,ST-472,652.0,191.0,220.0,241.0,1162.0,180.0
640,925. 불광역 2번출구,37.60956573,126.93097687,ST-473,175.0,62.0,382.0,8.0,79.0,158.0
641,927. 연신내역 3번출구 인근,37.61785507,126.92252350,ST-475,103.0,75.0,395.0,16.0,195.0,409.0
642,928. 은평역사한옥박물관,37.64131546,126.93804169,ST-476,1015.0,70.0,97.0,97.0,1778.0,94.0
643,930. 구 서부경찰서 건너편,37.60166168,126.92030334,ST-478,154.0,111.0,384.0,11.0,548.0,517.0
644,931. 역촌파출소,37.60473633,126.91533661,ST-479,605.0,91.0,299.0,45.0,683.0,816.0
645,932. 예일여중,37.61000443,126.91639709,ST-480,142.0,133.0,68.0,45.0,157.0,1033.0
646,933. 역촌종합시장 버스정류장(예일여고 방면),37.61248398,126.91487885,ST-481,194.0,66.0,184.0,37.0,251.0,801.0
647,934. 신사동 성당,37.59714127,126.90959930,ST-1020,203.0,89.0,419.0,46.0,545.0,217.0
648,937. 상림마을 롯데캐슬2단지 옆,37.64585114,126.92379761,ST-1023,1090.0,201.0,283.0,190.0,913.0,1114.0
649,938. 금암 문화공원,37.64468384,126.91845703,ST-1024,835.0,172.0,237.0,187.0,559.0,861.0
650,939. 은평구청 교차로,37.60169983,126.92742157,ST-1025,458.0,99.0,303.0,58.0,644.0,114.0
651,941. 은평뉴타운 도서관,37.63722229,126.93330383,ST-1027,399.0,120.0,440.0,115.0,1278.0,543.0
652,942. 상림마을 생태공원,37.64408112,126.92928314,ST-1028,1038.0,229.0,155.0,226.0,1252.0,869.0
653,943. 은평구청 보건소,37.60240173,126.92864990,ST-1029,401.0,73.0,294.0,36.0,658.0,156.0
654,945. 기자촌 사거리,37.63414001,126.93234253,ST-1031,156.0,181.0,193.0,146.0,1217.0,521.0
655,946. 독바위역 ,37.61843872,126.93288422,ST-1032,88.0,12.0,231.0,31.0,15.0,49.0
656,947. 연신내 선일하이츠빌 정류소,37.62266922,126.91999054,ST-1033,477.0,105.0,430.0,60.0,396.0,415.0
657,948. 디지털미디어 시티역 4번출구(DMC역),37.57720184,126.90235138,ST-1034,434.0,37.0,472.0,211.0,148.0,399.0
658,949. 연신내역 1번 출구 ,37.61978149,126.92080688,ST-1035,159.0,27.0,392.0,41.0,69.0,238.0
659,950. 구산역 2번 출구 ,37.61077881,126.91735077,ST-1036,95.0,13.0,124.0,12.0,52.0,938.0
660,952. 서울연신중학교,37.62265015,126.92524719,ST-1038,139.0,123.0,89.0,130.0,529.0,729.0
661,953. 서울연신초등학교,37.62577820,126.92881775,ST-1039,499.0,18.0,108.0,26.0,898.0,483.0
662,954. 은평뉴타운구파발9단지,37.64260864,126.92147827,ST-1329,676.0,95.0,206.0,37.0,723.0,700.0
663,956. 응암시장교차로,37.59441376,126.91801453,ST-1331,5.0,47.0,363.0,54.0,502.0,921.0
664,958. 본 서부병원 버스정류장(은평 세무서 방면),37.60036087,126.92281342,ST-1479,232.0,79.0,431.0,54.0,651.0,319.0
665,959. 구파발10단지 인근,37.64366150,126.91455841,ST-1480,783.0,149.0,421.0,304.0,501.0,807.0
666,960. 구파발역 환승센터,37.63825226,126.91945648,ST-1481,174.0,53.0,485.0,53.0,208.0,194.0
667,961. 불광역 9번 출구,37.61096954,126.92980957,ST-1482,155.0,39.0,255.0,60.0,37.0,175.0
668,962. 은평뉴타운 힐데스하임,37.63925934,126.91890717,ST-1483,244.0,28.0,373.0,37.0,313.0,270.0
669,963. 대호프라자아파트,37.61442947,126.93257904,ST-1484,357.0,37.0,201.0,31.0,444.0,485.0
670,964. 북한산힐스테이트 7차아파트,37.61654282,126.92512512,ST-1485,368.0,65.0,231.0,45.0,462.0,678.0
671,965. 서울특별시 은평병원,37.59347916,126.92318726,ST-1486,226.0,39.0,379.0,51.0,875.0,924.0
672,966. 서울혁신파크1,37.60903168,126.93467712,ST-1487,507.0,265.0,275.0,107.0,401.0,43.0
673,967. 서울혁신파크2,37.60890961,126.93241882,ST-1488,314.0,86.0,350.0,103.0,224.0,177.0
674,968. 은평뉴타운 상림마을 13단지,37.64208984,126.92941284,ST-1489,865.0,28.0,375.0,401.0,1123.0,778.0
675,969. 은평 지웰테라스,37.64385986,126.93187714,ST-1490,975.0,275.0,303.0,355.0,1414.0,661.0
676,971. 역촌 센트레빌 아파트,37.60232925,126.90654755,ST-1674,380.0,141.0,193.0,184.0,901.0,438.0
677,972. 수색역,37.58216095,126.89492798,ST-1751,422.0,327.0,323.0,370.0,157.0,212.0
678,973.제각말푸르지오 5-1단지 아파트,37.63734818,126.93584442,ST-2241,571.0,32.0,483.0,112.0,1503.0,388.0
679,974.연신초등학교옆 마을마당,37.62672043,126.92901611,ST-2242,601.0,123.0,44.0,120.0,988.0,378.0
680,975.백련산 힐스테이트상가앞,37.59036255,126.92301178,ST-2243,395.0,109.0,183.0,94.0,834.0,940.0
681,976.진관고등학교앞,37.64350891,126.92410278,ST-2244,884.0,169.0,31.0,136.0,911.0,906.0
682,977.신도중학교앞,37.63310242,126.93150330,ST-2245,160.0,201.0,66.0,243.0,1176.0,384.0
683,978.녹번 힐스테이트상가앞,37.60100937,126.93592834,ST-2246,335.0,102.0,176.0,199.0,24.0,726.0
684,979.원풍빌라앞,37.59186172,126.90608215,ST-2247,864.0,61.0,139.0,34.0,671.0,838.0
685,982. 녹번초등학교(서오릉로),37.60412598,126.92508698,ST-2250,318.0,52.0,109.0,49.0,305.0,250.0
686,984.상신초등학교앞 버스정류장,37.59580994,126.91026306,ST-2252,341.0,80.0,367.0,21.0,553.0,372.0
687,985. 은평세무서 버스정류장(은평구청 방면),37.60119247,126.92638397,ST-2253,530.0,87.0,343.0,77.0,640.0,35.0
688,989. 신응교(가좌로) 앞,37.59181213,126.91483307,ST-2257,361.0,34.0,272.0,68.0,153.0,939.0
689,991.흥국사 정류장,37.65676880,126.94200897,ST-2259,801.0,511.0,797.0,1259.0,2662.0,569.0
690,992.북한산입구 정류장,37.65842819,126.94606018,ST-2260,1198.0,242.0,610.0,1653.0,3062.0,296.0
691,993.은평뉴타운 은뜨락아파트앞,37.63028717,126.91956329,ST-2261,503.0,223.0,115.0,206.0,685.0,748.0
692,994.북한산생태공원입구(교통섬),37.61050797,126.93853760,ST-2262,846.0,136.0,532.0,51.0,727.0,340.0
693,995.은평다목적체육관,37.63140869,126.92540741,ST-2263,561.0,330.0,381.0,120.0,803.0,370.0
694,996.응암역2번출구 국민은행 앞,37.59993744,126.91571808,ST-2264,395.0,38.0,254.0,68.0,160.0,565.0
695,1001. 광진교 남단 사거리(천호공원 방면),37.54179382,127.12474823,ST-485,134.0,28.0,539.0,82.0,371.0,324.0
696,1002. 해공공원(천호동),37.54526138,127.12594604,ST-486,468.0,171.0,189.0,117.0,561.0,109.0
697,1003. 해공도서관앞,37.54395676,127.12548828,ST-487,326.0,159.0,307.0,41.0,619.0,98.0
698,1004. 삼성광나루아파트 버스정류장,37.55332947,127.12886810,ST-488,561.0,103.0,311.0,25.0,370.0,936.0
699,1006. 롯데캐슬 115동앞,37.55486679,127.14279938,ST-490,209.0,170.0,76.0,46.0,400.0,994.0
700,1007.암사동 선사유적지,37.55955887,127.13087463,ST-491,698.0,461.0,431.0,311.0,1084.0,225.0
701,1008. 암사역 3번출구(국민은행앞),37.54957581,127.12718201,ST-492,764.0,70.0,239.0,16.0,72.0,580.0
702,1009. 천호역4번출구(현대백화점),37.53866577,127.12424469,ST-493,114.0,81.0,659.0,64.0,32.0,214.0
703,1010. 강동세무서,37.53450775,127.13840485,ST-494,467.0,22.0,443.0,85.0,394.0,205.0
704,1011. LIGA 아파트 앞,37.53474426,127.13528442,ST-495,442.0,16.0,246.0,91.0,284.0,238.0
705,1012. 서울 상운차량,37.53600693,127.12272644,ST-496,384.0,95.0,377.0,108.0,218.0,211.0
706,1013. 강동구청역 1번 출입구,37.53071594,127.12098694,ST-497,213.0,32.0,154.0,42.0,73.0,212.0
707,1015. 샛마을 근린공원,37.55003738,127.14691162,ST-499,217.0,63.0,306.0,50.0,295.0,612.0
708,1016. 해뜨는 주유소옆 리엔파크 109동앞,37.55939865,127.17118073,ST-500,644.0,39.0,454.0,75.0,453.0,255.0
709,1017. 둔촌고교입구 교차로(길동주민센터 방면),37.53544617,127.14518738,ST-501,522.0,156.0,341.0,77.0,527.0,570.0
710,1018. 둔촌 주공 GS 맞은편,37.52458954,127.13542175,ST-830,236.0,109.0,255.0,67.0,347.0,497.0
711,1019. 다성이즈빌아파트(호원대 대각선 맞은편),37.52679443,127.13005829,ST-502,468.0,91.0,268.0,68.0,552.0,43.0
712,1020. 강동경찰서,37.52825165,127.12680054,ST-503,336.0,79.0,207.0,80.0,602.0,139.0
713,1021. 강일동 리슈빌 빌딩앞,37.56427383,127.17397308,ST-504,814.0,26.0,301.0,40.0,774.0,709.0
714,1022. 길동 사거리(초소앞),37.53377914,127.13799286,ST-505,556.0,75.0,469.0,152.0,483.0,169.0
715,1023. 한국종합기술사옥 앞,37.54998398,127.17470551,ST-1040,603.0,33.0,380.0,60.0,830.0,870.0
716,1024.  강동구청 앞,37.52929688,127.12315369,ST-1041,247.0,23.0,239.0,23.0,260.0,67.0
717,1025. 상일초등학교,37.54684067,127.17251587,ST-1042,211.0,109.0,53.0,246.0,1207.0,495.0
718,1026. 대명초교 입구 교차로,37.54653549,127.15583801,ST-1043,832.0,162.0,215.0,60.0,956.0,543.0
719,1027. 프라자 아파트 앞,37.53596115,127.14781952,ST-1044,696.0,57.0,387.0,95.0,719.0,804.0
720,1028. 포레스 주상복합 빌딩,37.53310776,127.12277222,ST-1045,106.0,30.0,191.0,82.0,381.0,114.0
721,1029. 성내어울터,37.53655624,127.12553406,ST-1046,232.0,29.0,588.0,120.0,256.0,18.0
722,1030. 미호 플랜트 앞,37.52703094,127.12206268,ST-1047,248.0,80.0,485.0,179.0,380.0,239.0
723,1031. 올림픽로 836(아리수로),37.55582047,127.12991333,ST-1048,568.0,80.0,121.0,14.0,662.0,647.0
724,1032. 선사고등학교,37.55672836,127.13626099,ST-1049,197.0,143.0,55.0,143.0,906.0,710.0
725,1033. 고덕동 아남아파트,37.55793381,127.14476776,ST-1050,512.0,491.0,201.0,22.0,736.0,857.0
726,1034. 고덕동 래미안 힐스테이트,37.56187820,127.15078735,ST-1051,387.0,228.0,425.0,294.0,814.0,471.0
727,1035. 고덕역 4번출구,37.55509567,127.15528107,ST-1052,82.0,47.0,408.0,46.0,98.0,451.0
728,1036. 고덕동 주양쇼핑,37.55199051,127.15331268,ST-1053,339.0,65.0,253.0,46.0,347.0,352.0
729,1037. 강일리버파크 6단지,37.56256485,127.17761230,ST-1054,542.0,65.0,183.0,67.0,595.0,879.0
730,1038. 강일 다솜 어린이 공원,37.56863785,127.17480469,ST-1055,375.0,156.0,294.0,163.0,1246.0,1141.0
731,1039. 고덕초등학교,37.56129837,127.16784668,ST-1056,557.0,192.0,117.0,24.0,540.0,177.0
732,1041. 묘곡초등학교,37.55916214,127.15332031,ST-1058,214.0,134.0,68.0,25.0,462.0,847.0
733,1042. 강일리버파크 2~5단지,37.56854630,127.17700958,ST-1059,465.0,42.0,146.0,37.0,1239.0,1151.0
734,1044. 굽은다리역,37.54540634,127.14267731,ST-1061,43.0,44.0,315.0,47.0,21.0,65.0
735,1047. 강동 한신휴플러스,37.53647232,127.13715363,ST-1369,253.0,23.0,253.0,159.0,294.0,149.0
736,1048. 둔촌어린이공원,37.53099442,127.14237213,ST-1370,780.0,45.0,177.0,49.0,606.0,326.0
737,1049. 강일리버파크 10단지,37.56120300,127.18026733,ST-1371,459.0,157.0,122.0,200.0,582.0,671.0
738,1050.  둔촌역 3번 출입구,37.52678299,127.13557434,ST-1420,20.0,72.0,178.0,15.0,112.0,289.0
739,"1051. 강일중,선사고 버스정류장(신암중학교 방면)",37.55483627,127.13732147,ST-1421,95.0,107.0,108.0,34.0,705.0,933.0
740,1052. 리싸이클시티,37.55644989,127.15682220,ST-1593,217.0,246.0,335.0,228.0,281.0,569.0
741,1053. 동명근린공원 진입로 (아리수로),37.56254578,127.16448212,ST-1594,612.0,189.0,238.0,216.0,663.0,460.0
742,1054. 말우물 어린이 공원,37.56002808,127.16967773,ST-1595,564.0,133.0,304.0,153.0,499.0,124.0
743,1056. 강일리버파크 7~11단지,37.56335449,127.17905426,ST-1597,390.0,167.0,154.0,221.0,722.0,781.0
744,1057. 능골근린공원,37.55580902,127.17374420,ST-1598,523.0,127.0,124.0,86.0,248.0,648.0
745,1058. 고덕숲 아이파크 1,37.55348206,127.16505432,ST-1623,327.0,242.0,99.0,255.0,362.0,731.0
746,1059. 래미안 강동팰리스(102동),37.53822708,127.13174438,ST-1626,404.0,34.0,275.0,111.0,266.0,270.0
747,1060. 천일초교 사거리,37.54467010,127.13267517,ST-1620,580.0,14.0,71.0,43.0,759.0,548.0
748,1061. 천호초교 입구 사거리(일주빌딩),37.54689789,127.13466644,ST-1621,278.0,53.0,167.0,21.0,726.0,583.0
749,1062. 고덕숲 아이파크 2,37.55107880,127.16259766,ST-1622,595.0,265.0,212.0,265.0,686.0,475.0
750,1063.강동롯데캐슬퍼스트 아파트(관리동),37.55666351,127.14273834,ST-1762,280.0,260.0,250.0,245.0,595.0,1061.0
751,1064.중앙보훈병원역 1번출구,37.52779388,127.14764404,ST-1763,1092.0,90.0,256.0,296.0,95.0,912.0
752,1065.보훈병원 후문옆(더 원커피),37.53120804,127.14926910,ST-1764,1106.0,217.0,251.0,265.0,320.0,877.0
753,1066.생태공원앞 교차로(조명탑),37.53776550,127.15201569,ST-1765,1016.0,360.0,393.0,356.0,1060.0,1224.0
754,1067.한영중고앞사거리,37.54903412,127.15605164,ST-1766,618.0,187.0,117.0,32.0,688.0,272.0
755,1068.명일파출소,37.55364990,127.15622711,ST-1767,108.0,91.0,504.0,41.0,239.0,271.0
756,1069.강동경희대학교병원 입구,37.55305481,127.15688324,ST-1830,189.0,67.0,429.0,82.0,326.0,193.0
757,1070.(시립)고덕평생학습관,37.55570221,127.15792084,ST-1831,209.0,253.0,395.0,137.0,339.0,489.0
758,1071.명일근린공원공동체텃밭,37.55568695,127.15991211,ST-1832,366.0,328.0,409.0,62.0,512.0,538.0
759,1072.고덕역 5번출구,37.55486298,127.15372467,ST-1833,202.0,43.0,291.0,37.0,43.0,498.0
760,1073.SSTS 몰 앞,37.54114532,127.14105225,ST-1834,312.0,43.0,275.0,56.0,379.0,507.0
761,1074.대명초교입구 사거리,37.54683685,127.14916229,ST-1835,580.0,161.0,323.0,250.0,573.0,614.0
762,1075.천동초교 삼거리,37.54136276,127.13718414,ST-1836,310.0,49.0,94.0,52.0,465.0,518.0
763,1076. 천동초교입구사거리 버스정류장(십자성마을 방면),37.53989410,127.14103699,ST-1837,175.0,146.0,288.0,49.0,246.0,589.0
764,1077.강동역 1번출구 앞,37.53620529,127.13256073,ST-1838,427.0,46.0,169.0,101.0,38.0,178.0
765,1078.둔촌사거리,37.52197647,127.13362122,ST-1839,548.0,158.0,215.0,47.0,528.0,577.0
766,1079.강일동입구교차로,37.56184387,127.17084503,ST-1840,772.0,85.0,388.0,116.0,650.0,322.0
767,1080.엘웨딩,37.53683090,127.12841797,ST-1841,324.0,78.0,521.0,135.0,366.0,208.0
768,1081.트레빌빌딩,37.53699875,127.12953186,ST-1842,397.0,29.0,423.0,82.0,281.0,288.0
769,1082.중앙보훈병원역3번출구,37.52956009,127.14900970,ST-1843,1230.0,56.0,253.0,358.0,138.0,913.0
770,1083.광문고교사거리(아이파크),37.56036758,127.15659332,ST-1844,532.0,93.0,154.0,36.0,628.0,757.0
771,1084. 윤선생빌딩(JYP사옥),37.52392960,127.12912750,ST-1687,632.0,80.0,248.0,32.0,750.0,299.0
772,1085.래미안 솔베뉴(고덕로),37.55456924,127.14587402,ST-1845,403.0,198.0,193.0,91.0,387.0,1010.0
773,1086.래미안 솔베뉴(구천면로),37.55059814,127.14545441,ST-1846,76.0,51.0,292.0,21.0,152.0,589.0
774,1088.풍납사거리(강동),37.52812195,127.11952209,ST-1848,112.0,101.0,379.0,153.0,245.0,280.0
775,1089.고덕 래미안힐스테이트(201동),37.56060028,127.14669800,ST-1849,459.0,453.0,386.0,295.0,902.0,536.0
776,1090.상일동역 2번출구 앞,37.55678940,127.16614532,ST-1850,145.0,30.0,303.0,138.0,24.0,379.0
777,1101. 개화동상사마을종점 버스정류장,37.58161163,126.79859924,ST-507,1288.0,326.0,1023.0,405.0,392.0,1558.0
778,1102. 방화사거리 마을버스 버스정류장,37.57364273,126.81180573,ST-508,115.0,9.0,347.0,5.0,448.0,356.0
779,1103. 방화역 4번출구앞,37.57722092,126.81219482,ST-831,57.0,45.0,253.0,32.0,69.0,738.0
780,1105. 방화근린공원,37.58162308,126.81265259,ST-509,542.0,172.0,152.0,165.0,446.0,1223.0
781,1106. 신방화사거리,37.57303238,126.81645203,ST-824,307.0,144.0,321.0,54.0,600.0,629.0
782,1108. 공항시장역 2번출구 뒤,37.56387329,126.81060791,ST-510,688.0,36.0,141.0,57.0,20.0,190.0
783,1109. 공항시장역 4번출구,37.56334686,126.81048584,ST-511,674.0,23.0,94.0,41.0,39.0,141.0
784,1111. 마곡엠밸리6_7단지 마곡중학교,37.56698227,126.82180023,ST-512,182.0,234.0,115.0,228.0,407.0,684.0
785,1112. 마곡엠밸리4단지 정문,37.56857681,126.82477570,ST-513,79.0,89.0,309.0,78.0,311.0,533.0
786,1113. 서남환경공원 버스정류장,37.57312393,126.82238770,ST-514,267.0,96.0,463.0,160.0,773.0,1054.0
787,1117. 등촌5단지아파트 버스정류장,37.55819702,126.84426117,ST-834,175.0,69.0,234.0,6.0,578.0,356.0
788,1118. 증미역 3번출구뒤(등촌두산위브센티움오피스텔),37.55746078,126.86145782,ST-516,86.0,9.0,378.0,46.0,104.0,484.0
789,1119. 염창동 한마음아파트 앞,37.55425262,126.86756134,ST-517,397.0,52.0,121.0,9.0,428.0,312.0
790,1120. 대림경동아파트앞,37.56478500,126.85464478,ST-518,101.0,78.0,321.0,74.0,372.0,373.0
791,1121. 가양레포츠센터 앞,37.55947876,126.86437988,ST-519,263.0,232.0,115.0,81.0,362.0,355.0
792,1122. 황금내근린공원,37.56193161,126.86386871,ST-520,453.0,198.0,174.0,256.0,509.0,609.0
793,1124. 발산역 6번 출구 뒤,37.55817795,126.83845520,ST-522,273.0,52.0,294.0,89.0,84.0,273.0
794,1125. 명덕고교입구(영종빌딩),37.55291367,126.83657074,ST-835,350.0,139.0,147.0,14.0,455.0,719.0
795,1126. 우장산역 1번출구옆(우장산아이파크105동앞),37.54890823,126.83656311,ST-523,78.0,17.0,303.0,51.0,23.0,787.0
796,1127. 화곡역 버스정류장,37.54098129,126.83854675,ST-524,51.0,58.0,67.0,40.0,184.0,94.0
797,1128. 화곡역 6번출구,37.54141235,126.84022522,ST-829,133.0,60.0,159.0,34.0,33.0,248.0
798,1129. 화곡역 1번 출구 앞,37.54209900,126.84021759,ST-525,152.0,51.0,145.0,38.0,53.0,286.0
799,1130. 화곡본동시장 버스정류장,37.54275131,126.84262085,ST-526,375.0,74.0,105.0,22.0,227.0,236.0
800,1131. 꿈돌이공원 앞,37.54644394,126.84545898,ST-527,333.0,42.0,301.0,82.0,691.0,246.0
801,1132. 등촌역 7번출구,37.55110931,126.86370850,ST-528,153.0,90.0,303.0,89.0,170.0,707.0
802,1135. 강서구의회,37.54653168,126.86254883,ST-530,159.0,114.0,118.0,42.0,536.0,666.0
803,1136. 등촌2파출소,37.54478836,126.86199951,ST-531,62.0,71.0,276.0,36.0,731.0,759.0
804,1137. 등촌2동주민센터,37.54126358,126.86337280,ST-532,431.0,86.0,178.0,93.0,1068.0,884.0
805,1139. 용문사 버스정류장,37.53650665,126.86333466,ST-533,543.0,102.0,244.0,84.0,1156.0,1041.0
806,1140. 목동사거리 버스정류장,37.53139877,126.86360931,ST-534,410.0,42.0,541.0,42.0,590.0,595.0
807,1141. 곰달래 문화복지센터 1-1,37.52906036,126.84848022,ST-535,315.0,92.0,432.0,162.0,293.0,811.0
808,1145. 곰달래 문화복지센터 1-2,37.52891922,126.84808350,ST-536,312.0,84.0,440.0,173.0,293.0,833.0
809,1146. 곰달래사거리,37.53033829,126.83825684,ST-537,745.0,34.0,528.0,46.0,753.0,687.0
810,1148. 볏골공원,37.54146957,126.84477997,ST-538,536.0,24.0,198.0,21.0,382.0,355.0
811,1149. 신방화역환승주차장,37.56728363,126.81827545,ST-975,476.0,33.0,185.0,31.0,94.0,519.0
812,1150. 송정역 1번출구,37.56153107,126.81069946,ST-1062,718.0,31.0,130.0,71.0,158.0,168.0
813,1151. 마곡역1번출구,37.56020737,126.82414246,ST-1063,275.0,114.0,279.0,132.0,48.0,611.0
814,1152. 마곡역교차로,37.55831146,126.82652283,ST-1064,22.0,105.0,338.0,40.0,267.0,501.0
815,"1153. 발산역 1번, 9번 인근 대여소",37.55894852,126.83717346,ST-1065,319.0,19.0,312.0,40.0,58.0,175.0
816,1155. 기쁜우리복지관,37.56925964,126.84841919,ST-1067,456.0,38.0,102.0,35.0,583.0,274.0
817,1157. 강서구청,37.55065918,126.84976959,ST-1069,273.0,67.0,370.0,155.0,1205.0,339.0
818,1158. 가양역 8번출구,37.56103516,126.85481262,ST-1249,149.0,27.0,96.0,37.0,56.0,121.0
819,1159. 서서울모터리움 앞,37.56585312,126.84659576,ST-1250,70.0,39.0,180.0,93.0,477.0,438.0
820,1160. 양천향교역 7번출구앞,37.56768036,126.84089661,ST-1251,326.0,26.0,312.0,38.0,105.0,547.0
821,1161. 강서면허시험장 앞,37.54969406,126.81966400,ST-1252,694.0,124.0,351.0,316.0,1250.0,1242.0
822,1162. 공항초등학교건너편,37.56267929,126.82047272,ST-1253,308.0,116.0,120.0,48.0,461.0,833.0
823,1163. 방화동강서기동대앞,37.57049942,126.82008362,ST-1254,91.0,45.0,152.0,23.0,418.0,794.0
824,1165. 마곡중학교 후문,37.56844711,126.82164764,ST-1338,231.0,144.0,59.0,122.0,404.0,755.0
825,1166. 강서구립등빛도서관,37.56256866,126.84246063,ST-1351,331.0,35.0,183.0,28.0,600.0,332.0
826,1167. 마곡수명산파크3단지 교차로,37.55350876,126.82586670,ST-1352,114.0,37.0,179.0,35.0,752.0,956.0
827,1168. 마곡엠밸리10단지 앞,37.56029129,126.81875610,ST-1402,539.0,26.0,307.0,191.0,524.0,874.0
828,1169. 염창역 1번 출구,37.54719925,126.87448883,ST-1506,429.0,60.0,362.0,55.0,41.0,56.0
829,1170. 강서구보건소,37.54917908,126.86879730,ST-1507,364.0,120.0,133.0,58.0,332.0,244.0
830,1171. 염창동 새마을금고 건너편,37.55004883,126.87316132,ST-1508,94.0,27.0,273.0,37.0,372.0,318.0
831,1172. 가양3동 주민센터,37.56124878,126.86058044,ST-1509,363.0,29.0,200.0,26.0,346.0,552.0
832,1173. 강서구청사거리(SH타워),37.55625916,126.85331726,ST-1510,260.0,39.0,205.0,114.0,582.0,122.0
833,1174. 강서구청사거리(부민병원),37.55659866,126.85147095,ST-1511,225.0,59.0,182.0,109.0,596.0,78.0
834,1175. 대한항공 인력개발센터,37.55437851,126.85753632,ST-1512,513.0,88.0,257.0,105.0,498.0,409.0
835,1177. 수명중․고교,37.55010986,126.82367706,ST-1514,408.0,42.0,83.0,50.0,1126.0,1272.0
836,1178. 개화산역 2번 출구,37.57247162,126.80616760,ST-1515,140.0,15.0,197.0,41.0,57.0,375.0
837,1180. 마곡엠밸리 15단지(1502동) 건너편,37.55746841,126.82971954,ST-1517,318.0,99.0,495.0,99.0,539.0,419.0
838,1181. 농수산식품공사 (강서지사),37.55104446,126.81849670,ST-1518,619.0,292.0,445.0,417.0,1157.0,1068.0
839,1182. KBS 스포츠월드,37.55687714,126.84880829,ST-1519,336.0,127.0,142.0,37.0,708.0,75.0
840,1183. KC 대학교,37.54832077,126.85340118,ST-1520,371.0,77.0,78.0,84.0,1108.0,632.0
841,1184. 마곡13단지,37.55644989,126.81597900,ST-1645,620.0,119.0,282.0,140.0,609.0,629.0
842,1185. 등촌9단지,37.56290054,126.84947205,ST-1646,165.0,144.0,233.0,156.0,466.0,26.0
843,1186. 송정중학교,37.55472946,126.81609344,ST-1647,603.0,74.0,119.0,143.0,783.0,681.0
844,1187. 강서수산물도매시장,37.55302048,126.81836700,ST-1676,478.0,201.0,308.0,251.0,976.0,941.0
845,1188. 롯데중앙연구소,37.57138062,126.82833862,ST-1708,448.0,29.0,724.0,265.0,524.0,588.0
846,1190. 마곡역 교차로(2번출구),37.56050110,126.82665253,ST-1709,231.0,57.0,447.0,152.0,175.0,387.0
847,"1191. 마곡역 버스정류장(마곡나루역1번출구, 웰튼병원 방면)",37.56024170,126.82716370,ST-1689,214.0,36.0,467.0,146.0,218.0,350.0
848,1192. 마곡수명산파크 209동 건너편,37.55545044,126.82689667,ST-1710,293.0,143.0,388.0,175.0,564.0,724.0
849,1193. 마곡센트럴타워 1차,37.55947113,126.83207703,ST-1688,521.0,67.0,509.0,18.0,507.0,206.0
850,1194. 센서텍㈜,37.56330109,126.83682251,ST-1711,492.0,119.0,556.0,332.0,519.0,451.0
851,1195. 코오롱One&Only타워,37.56412888,126.83431244,ST-1712,715.0,132.0,795.0,399.0,625.0,305.0
852,1196. 서울식물원(문화센터) 건너편,37.56824112,126.83583069,ST-1713,683.0,145.0,423.0,338.0,543.0,370.0
853,1197. 엠펠리체 호텔 건너편,37.56024170,126.83580780,ST-1714,418.0,53.0,444.0,98.0,243.0,114.0
854,1198. LG 사이언스파크,37.56254959,126.82743835,ST-1715,308.0,221.0,517.0,216.0,342.0,350.0
855,1199. 우장산역 3번출구,37.54782104,126.83612823,ST-1694,185.0,37.0,260.0,51.0,111.0,756.0
856,1200. 개화광역환승센터,37.57844925,126.79897308,ST-1695,1049.0,114.0,721.0,222.0,184.0,1282.0
857,1201. 가락시장역 3번 출구,37.49317932,127.11854553,ST-838,175.0,28.0,411.0,28.0,26.0,221.0
858,1203. 밀리아나2빌딩 앞,37.49372864,127.12062073,ST-737,336.0,55.0,301.0,17.0,219.0,36.0
859,1204. 거여역 3번출구,37.49334335,127.14472961,ST-930,101.0,41.0,257.0,23.0,84.0,99.0
860,1205. 종합운동장역 4번출구,37.51042938,127.07137299,ST-539,539.0,103.0,188.0,432.0,232.0,424.0
861,1206. 9호선종합운동장역 9번출구,37.51128006,127.07823944,ST-540,433.0,49.0,484.0,76.0,169.0,257.0
862,1207. 마천중앙시장,37.49975586,127.15250397,ST-738,460.0,5.0,206.0,57.0,524.0,646.0
863,1208. 풍납현대아파트쉼터,37.52974701,127.11996460,ST-541,107.0,116.0,255.0,60.0,66.0,225.0
864,1209. 잠실나루역 (2번 출구 쪽),37.52045059,127.10420227,ST-542,38.0,43.0,228.0,42.0,45.0,647.0
865,1210. 롯데월드타워(잠실역2번출구 쪽),37.51312637,127.10095978,ST-891,159.0,61.0,520.0,147.0,67.0,70.0
866,1211. 방이삼거리,37.51210403,127.10778046,ST-739,358.0,156.0,562.0,142.0,448.0,239.0
867,1212. 송파역 2번 출구앞,37.49941254,127.11286926,ST-839,113.0,77.0,75.0,96.0,68.0,343.0
868,1213. 백토공원 앞,37.50831985,127.13321686,ST-543,421.0,154.0,194.0,58.0,631.0,693.0
869,1214. 오금역 7번 출구 인근,37.50259399,127.12764740,ST-740,214.0,52.0,315.0,103.0,57.0,67.0
870,1215. 올림픽공원역 1번출구 앞,37.51657104,127.13153839,ST-544,160.0,52.0,301.0,82.0,57.0,420.0
871,1217. 송파파인타운 7단지,37.47930527,127.12979889,ST-545,304.0,18.0,215.0,171.0,329.0,175.0
872,1218. 방이역 4번출구,37.50896835,127.12583923,ST-892,173.0,31.0,351.0,13.0,33.0,173.0
873,1220. 잠실근린공원,37.50569153,127.08403778,ST-546,538.0,98.0,159.0,60.0,320.0,26.0
874,1221. 삼전역 4번출구,37.50419998,127.08753204,ST-933,200.0,62.0,428.0,60.0,41.0,334.0
875,1222. 잠실새내역 5번 출구 뒤,37.51198196,127.08505249,ST-547,174.0,77.0,351.0,20.0,118.0,171.0
876,1224. 아시아지하보도 2번 출구,37.51216888,127.07893372,ST-548,362.0,72.0,389.0,67.0,245.0,308.0
877,1226. 잠실4동 주민센터 옆,37.52007675,127.11236572,ST-894,84.0,54.0,85.0,73.0,255.0,248.0
878,1227. 거여역 8번출구 뒤,37.49312592,127.14382172,ST-895,159.0,20.0,179.0,70.0,23.0,121.0
879,1228. 마천사거리 ,37.49769974,127.14620209,ST-896,158.0,17.0,315.0,9.0,530.0,397.0
880,1229. 송파체육문화회관 앞,37.49068832,127.14312744,ST-549,307.0,88.0,159.0,60.0,298.0,371.0
881,1230. 송파중학교 정문,37.49567032,127.13059235,ST-897,128.0,153.0,63.0,50.0,471.0,810.0
882,1231. 잠실역 6번출구,37.51408768,127.09902954,ST-840,143.0,142.0,352.0,144.0,136.0,206.0
883,1232. 잠실주공 521동 건너편,37.51208878,127.09619141,ST-550,49.0,166.0,236.0,170.0,382.0,156.0
884,1233. 잠실3거리(갤러리아팰리스),37.51050949,127.09336853,ST-551,246.0,115.0,253.0,79.0,635.0,419.0
885,1235. 잠실트리지움310동 옆,37.50887299,127.08716583,ST-553,221.0,111.0,237.0,44.0,314.0,124.0
886,1239. 문정 법조단지3,37.48084259,127.11801147,ST-899,189.0,169.0,863.0,270.0,698.0,256.0
887,1240. 문정 법조단지4,37.48057556,127.11856842,ST-900,158.0,112.0,814.0,224.0,697.0,200.0
888,1241. 문정 법조단지5,37.48123932,127.11979675,ST-901,263.0,83.0,708.0,119.0,582.0,220.0
889,1242. 문정 법조단지6,37.48163223,127.11916351,ST-902,284.0,146.0,769.0,187.0,569.0,276.0
890,1243. 문정 법조단지7,37.48453140,127.12016296,ST-903,222.0,54.0,590.0,121.0,264.0,112.0
891,1244. 문정 법조단지8,37.48153687,127.12212372,ST-904,69.0,56.0,509.0,107.0,482.0,163.0
892,1245. 문정 법조단지9,37.47946548,127.12532806,ST-905,149.0,45.0,253.0,145.0,119.0,172.0
893,1246. 문정 법조단지10,37.47750854,127.12632751,ST-906,94.0,26.0,371.0,67.0,125.0,60.0
894,1247. 문정 법조단지11,37.47882080,127.12351227,ST-907,200.0,102.0,428.0,102.0,236.0,97.0
895,1248. 방이초등학교,37.51396179,127.12167358,ST-908,673.0,210.0,116.0,62.0,543.0,175.0
896,1249. 아주중학교건너편,37.50546265,127.07734680,ST-909,889.0,103.0,91.0,62.0,666.0,320.0
897,1250.문정2동 주민센터,37.48987198,127.11083984,ST-981,644.0,108.0,66.0,110.0,656.0,371.0
898,1251. 석촌역 2번출구,37.50593185,127.10774994,ST-1070,617.0,117.0,336.0,4.0,87.0,137.0
899,1253. 오금역 3번 출구 뒤,37.50165176,127.12818146,ST-1072,296.0,62.0,384.0,35.0,57.0,124.0
900,1256. 문정현대아파트 교차로,37.49113083,127.12580872,ST-1075,536.0,79.0,245.0,17.0,553.0,545.0
901,1257. 가락시장역 사거리,37.49209976,127.11775208,ST-1076,40.0,99.0,446.0,119.0,19.0,344.0
902,1258. 가락미륭아파트 앞,37.49319839,127.12899780,ST-1077,180.0,126.0,313.0,41.0,506.0,729.0
903,1259. 방이역 1번출구,37.50898361,127.12659454,ST-1078,126.0,52.0,390.0,31.0,51.0,182.0
904,1260. 방이동 한양3차아파트 옆,37.50630188,127.12139893,ST-1079,205.0,26.0,267.0,25.0,496.0,82.0
905,1262. 송파여성문화회관 앞,37.50580215,127.10971832,ST-1081,443.0,44.0,213.0,21.0,243.0,186.0
906,1263. 장지공영차고지,37.48054123,127.13701630,ST-1082,464.0,268.0,334.0,419.0,981.0,526.0
907,1264. 천호역 10번 출구 앞,37.53858185,127.12280273,ST-1083,242.0,103.0,554.0,40.0,79.0,312.0
908,1265. 문정동 근린공원,37.48598862,127.12476349,ST-1084,271.0,44.0,177.0,99.0,201.0,439.0
909,1266. 문정동 글샘 공원,37.47880936,127.12000275,ST-1085,150.0,82.0,717.0,249.0,546.0,52.0
910,1267. 올림픽공원 남2문 앞,37.51424026,127.12306976,ST-1086,610.0,170.0,241.0,97.0,638.0,232.0
911,1268. 몽촌토성역 1번출구 옆,37.51728821,127.11419678,ST-1087,340.0,130.0,296.0,105.0,130.0,76.0
912,1269. 리센츠아파트 ,37.51194382,127.09121704,ST-1088,233.0,223.0,223.0,194.0,435.0,373.0
913,1271. 송파도서관,37.49998474,127.13539124,ST-1089,282.0,111.0,189.0,93.0,225.0,691.0
914,1274. 영파여고 앞,37.53284836,127.12104797,ST-1092,67.0,138.0,61.0,53.0,297.0,224.0
915,1275. 거여초등학교 옆,37.50458908,127.13936615,ST-1367,451.0,44.0,147.0,44.0,826.0,992.0
916,1277. 성내6교,37.50375748,127.13709259,ST-1408,267.0,94.0,262.0,89.0,666.0,778.0
917,1278. 송파구청 교차로,37.51579666,127.10681915,ST-1409,341.0,114.0,577.0,69.0,354.0,242.0
918,1279. 마천금호어울림 1차아파트 건너편,37.49751663,127.15467834,ST-1410,338.0,51.0,320.0,60.0,318.0,544.0
919,1280. 송파파크데일 2단지입구 앞 주차장,37.49565887,127.15717316,ST-1411,44.0,77.0,458.0,35.0,387.0,646.0
920,1282. 송파소방서 맞은편(성내4교),37.49987411,127.14147949,ST-1413,598.0,64.0,336.0,151.0,604.0,680.0
921,1283. 오금공원 사거리,37.50541306,127.13169098,ST-1414,244.0,218.0,180.0,47.0,445.0,415.0
922,1285. 위례별 유치원 뒤,37.47747040,127.14459229,ST-1416,320.0,129.0,162.0,74.0,1634.0,229.0
923,1286. 위례중앙푸르지오 1단지 앞,37.47437668,127.14067078,ST-1417,167.0,30.0,359.0,139.0,1298.0,192.0
924,1287. 위례아이파크 101동 맞은편,37.47753143,127.14151764,ST-1418,231.0,113.0,163.0,166.0,1362.0,204.0
925,1288. 문정중교 사거리,37.48799896,127.13108826,ST-1419,666.0,89.0,105.0,28.0,791.0,799.0
926,1289. 풍납토성 서성벽터B,37.53147125,127.11109161,ST-1422,636.0,212.0,402.0,188.0,838.0,1032.0
927,1290. 위례송파꿈에그린아파트24단지 앞 성벽 다리 밑,37.47458267,127.13754272,ST-1579,403.0,265.0,310.0,304.0,1047.0,390.0
928,1291. 서울체육고등학교 앞,37.52193832,127.13186646,ST-1580,613.0,157.0,114.0,90.0,626.0,520.0
929,1293. 석촌호수 서호 사거리,37.50656128,127.09655762,ST-1582,434.0,81.0,267.0,80.0,454.0,94.0
930,1295. 잠실역 8번출구,37.51396179,127.10030365,ST-1584,66.0,52.0,415.0,58.0,72.0,175.0
931,1296. 석촌호수교차로 (송파나루근린공원 앞),37.50867844,127.10343170,ST-1585,543.0,141.0,646.0,126.0,480.0,231.0
932,1297. 석촌호수교차로(동호 팔각정 앞),37.50920105,127.10411835,ST-1586,481.0,151.0,648.0,111.0,491.0,151.0
933,1299. 송파소방서 (방이119안전센터),37.51987839,127.13671112,ST-1588,588.0,152.0,124.0,406.0,179.0,924.0
934,1300. 오륜사거리,37.50693893,127.13922119,ST-1589,508.0,108.0,253.0,185.0,1060.0,1064.0
935,1302. 한성대입구역6번출구 뒤,37.58876419,127.00630951,ST-825,95.0,46.0,293.0,56.0,45.0,26.0
936,1303. 돈암초교 입구,37.59169388,127.01249695,ST-931,328.0,53.0,195.0,21.0,366.0,103.0
937,1304. 만해공원,37.59440231,126.99230957,ST-826,345.0,467.0,437.0,200.0,1380.0,119.0
938,1305. 성북구청,37.58932877,127.01643372,ST-947,724.0,52.0,318.0,39.0,338.0,203.0
939,1306. 한성대입구역2번출구,37.58844757,127.00670624,ST-842,58.0,56.0,300.0,7.0,60.0,67.0
940,1308. 안암로터리 버스정류장 앞,37.58259201,127.02897644,ST-827,683.0,77.0,219.0,51.0,413.0,213.0
941,1314. 정릉꿈에그린1단지 201동 앞,37.60243988,127.01168823,ST-559,560.0,82.0,314.0,45.0,164.0,312.0
942,1315. 고려사대부속중고 정문,37.60776138,127.00328064,ST-560,1394.0,94.0,162.0,61.0,655.0,54.0
943,1316. 고려사대부속중고 건너편 ,37.60726166,127.00283813,ST-562,1411.0,162.0,98.0,125.0,722.0,68.0
944,1318. 길음역 3번출구 뒤,37.60308456,127.02478790,ST-563,394.0,47.0,264.0,45.0,41.0,240.0
945,1319. 종암사거리 분수대,37.60304260,127.03327179,ST-564,254.0,34.0,468.0,108.0,726.0,459.0
946,1321. 국민은행 종암동지점 앞,37.59328842,127.03666687,ST-655,1013.0,117.0,179.0,159.0,317.0,505.0
947,1322. 래미안라센트아파트 103동 앞,37.59806824,127.03927612,ST-565,446.0,78.0,130.0,34.0,457.0,488.0
948,1323. 월곡역 입구 육교 밑,37.60043335,127.04020691,ST-567,182.0,113.0,170.0,67.0,188.0,652.0
949,1325. 상월곡역 4번출구,37.60580826,127.04773712,ST-571,808.0,102.0,123.0,180.0,127.0,268.0
950,1326. 상월곡역 1번출구,37.60606766,127.04731750,ST-572,793.0,118.0,113.0,136.0,144.0,313.0
951,1327. 상월곡역 3번출구,37.60734177,127.05068207,ST-574,1119.0,26.0,233.0,61.0,185.0,262.0
952,1328. 월곡역 3번출구,37.60262680,127.04163361,ST-910,166.0,69.0,429.0,79.0,92.0,483.0
953,1332. 석계역 5번출구 건너편,37.61355591,127.06609344,ST-578,308.0,89.0,411.0,90.0,164.0,401.0
954,1333. 석관초등학교 앞,37.61052322,127.05979919,ST-579,944.0,48.0,87.0,1.0,296.0,718.0
955,1334. 석관동주민센터 앞,37.61299896,127.06130981,ST-580,683.0,46.0,291.0,135.0,446.0,413.0
956,1336. 성북3교 위,37.59125137,127.01400757,ST-1200,427.0,68.0,265.0,39.0,257.0,51.0
957,1337. 돈암성당 옆,37.59038162,127.01713562,ST-1201,678.0,43.0,450.0,34.0,227.0,141.0
958,1338. 용문2교 옆,37.58689880,127.02075195,ST-1202,681.0,115.0,163.0,89.0,164.0,504.0
959,1339. 삼성전자서비스 성북센터,37.61056900,127.03350830,ST-1203,325.0,65.0,241.0,134.0,426.0,219.0
960,1340. 광운초등학교 앞,37.61784363,127.05500031,ST-1204,787.0,207.0,115.0,220.0,819.0,317.0
961,1342. 성북쉼터 앞,37.59261703,126.99793243,ST-1206,226.0,69.0,122.0,197.0,852.0,32.0
962,1343. 한성대7번출구 앞,37.58924866,127.00737762,ST-1207,161.0,56.0,214.0,4.0,150.0,40.0
963,1344. 아리랑시네센터 앞,37.60028839,127.01370239,ST-1208,419.0,43.0,279.0,53.0,258.0,17.0
964,1346. 길음8골어린이공원 옆,37.60897827,127.02024841,ST-1210,198.0,96.0,158.0,58.0,751.0,435.0
965,1347. 길음래미안아파트817동 상가 앞,37.60710526,127.02149963,ST-1211,148.0,48.0,113.0,104.0,517.0,234.0
966,1348. 성북제일새마을금고 본점 앞,37.60475159,127.02275848,ST-1212,139.0,19.0,377.0,24.0,252.0,121.0
967,1349. 월계2교 버스정류장 앞,37.62382889,127.05020142,ST-1213,186.0,197.0,316.0,182.0,1014.0,636.0
968,1351. 안암2교 옆,37.57944870,127.02419281,ST-1215,274.0,133.0,65.0,83.0,333.0,140.0
969,1352. e 편한세상 보문아파트 내,37.58388138,127.01709747,ST-1216,426.0,166.0,134.0,109.0,252.0,658.0
970,1353. 금호어울림센터힐 내,37.60083008,127.02355194,ST-1217,520.0,216.0,366.0,72.0,314.0,346.0
971,1354. 고려대학교 2번출구,37.59071350,127.03619385,ST-1317,1300.0,35.0,366.0,141.0,31.0,217.0
972,1355. 보문2교,37.58869934,127.01891327,ST-1347,908.0,138.0,337.0,57.0,363.0,355.0
973,1357. 북한산보국문역,37.61207199,127.00813293,ST-1383,967.0,121.0,547.0,39.0,13.0,248.0
974,1358. 정릉도서관 앞,37.60478973,127.01058197,ST-1384,676.0,51.0,257.0,89.0,355.0,553.0
975,1359. 장위뉴타운 꿈에 숲 코오롱 하늘채 앞,37.61980057,127.04509735,ST-1385,449.0,61.0,322.0,185.0,1434.0,157.0
976,1360. 정릉역,37.60309601,127.01350403,ST-1386,394.0,48.0,167.0,26.0,53.0,319.0
977,1361. 홍익중고 입구,37.59296799,127.00223541,ST-1424,548.0,60.0,94.0,12.0,604.0,108.0
978,1362. 보문역6번출구 앞,37.58519745,127.01966858,ST-1454,516.0,46.0,355.0,76.0,19.0,678.0
979,1363. 보문4교 인근,37.58375168,127.02194977,ST-1455,329.0,8.0,420.0,8.0,256.0,477.0
980,1364. 성북동 치안센터 앞,37.59017181,127.00408936,ST-1456,332.0,62.0,254.0,40.0,257.0,13.0
981,1365. 선잠단지 앞,37.59336090,126.99909210,ST-1457,268.0,123.0,105.0,135.0,820.0,78.0
982,1366. 일신초등학교 옆,37.59972000,127.04038239,ST-1458,262.0,65.0,91.0,37.0,250.0,594.0
983,1367. 길음문화복합미디어센터,37.60404587,127.02265930,ST-1459,206.0,75.0,439.0,80.0,224.0,52.0
984,1368. 성신여대입구 교차로,37.59148026,127.02010345,ST-1460,832.0,22.0,180.0,90.0,310.0,109.0
985,1369. 미아사거리,37.60913086,127.03002930,ST-1633,191.0,92.0,129.0,119.0,460.0,330.0
986,1370. 복자사랑 피정의 집,37.59453964,126.99520874,ST-1634,99.0,265.0,266.0,99.0,1171.0,44.0
987,1372. KEB은행 고대점,37.58644485,127.03160095,ST-1636,1059.0,35.0,348.0,63.0,209.0,278.0
988,1373. 성북구보건소 건너편,37.60229111,127.03897858,ST-1637,84.0,140.0,394.0,170.0,225.0,577.0
989,1375. 생명의 전화 종합복지관 앞 교차로,37.60390854,127.03737640,ST-1723,302.0,53.0,520.0,72.0,429.0,519.0
990,1376. 한국과학기술연구원 중문,37.59732056,127.04380798,ST-1745,629.0,343.0,354.0,349.0,539.0,295.0
991,1377. 한국과학기술연구원 북문,37.60395813,127.04534149,ST-1746,525.0,167.0,405.0,115.0,417.0,457.0
992,1379.길음뉴타운푸르지오아파트 3단지,37.60935974,127.01817322,ST-2221,131.0,102.0,125.0,111.0,853.0,609.0
993,1380.월곡역 5번출구 앞,37.60108566,127.04123688,ST-2222,160.0,74.0,255.0,16.0,81.0,656.0
994,1381.석계역 4번출구 뒤,37.61478424,127.06700134,ST-2223,153.0,53.0,550.0,111.0,48.0,374.0
995,1382.래미안월곡아파트 입구,37.60853577,127.03639221,ST-2406,197.0,115.0,190.0,42.0,766.0,458.0
996,1384.성신여대입구역 5번출구,37.59282684,127.01628876,ST-2225,463.0,43.0,314.0,14.0,54.0,71.0
997,1385.성신여대입구역 3번출구 앞,37.59236526,127.01628876,ST-2226,487.0,58.0,329.0,15.0,23.0,71.0
998,1386.동선고가차도 초입,37.59415817,127.01896667,ST-2227,537.0,53.0,303.0,41.0,209.0,192.0
999,1388.커핀그루나루,37.59088135,127.01170349,ST-2229,407.0,90.0,300.0,14.0,459.0,139.0
1000,1390.석관래미안아트리치,37.60646057,127.06162262,ST-2231,885.0,33.0,410.0,16.0,644.0,988.0
1001,1391.성북청소년센터,37.61701202,127.05616760,ST-2232,925.0,186.0,181.0,165.0,718.0,337.0
1002,1392.돈암삼성풍림아파트,37.59709930,127.02262878,ST-2233,446.0,179.0,211.0,86.0,668.0,127.0
1003,1393.돈암육교 하단,37.59802628,127.02140808,ST-2234,306.0,31.0,130.0,81.0,676.0,34.0
1004,1394.길음뉴타운 래미안9단지,37.60241699,127.01971436,ST-2235,174.0,49.0,482.0,50.0,484.0,264.0
1005,1395.래미안장위포레카운티(102동),37.61817932,127.05183411,ST-2236,584.0,34.0,312.0,138.0,939.0,478.0
1006,1396.래미안장위퍼스트하이(513동),37.61844254,127.05145264,ST-2237,542.0,79.0,324.0,96.0,981.0,441.0
1007,1401. 극동늘푸른아파트,37.61473846,127.07636261,ST-558,183.0,107.0,540.0,25.0,322.0,53.0
1008,1402. 금란주차장 앞,37.60007095,127.10233307,ST-561,315.0,31.0,192.0,77.0,878.0,936.0
1009,1403. 중화빌딩 앞 (동부시장),37.59424973,127.07657623,ST-566,557.0,80.0,519.0,165.0,94.0,208.0
1010,1404. 동일로 지하차도,37.59529877,127.08003235,ST-599,489.0,107.0,474.0,51.0,287.0,527.0
1011,1405. 망우역 1번출구,37.59909821,127.09294891,ST-568,300.0,46.0,349.0,144.0,55.0,159.0
1012,1406. 망우청소년수련관,37.60625076,127.10826874,ST-569,620.0,134.0,132.0,328.0,48.0,1712.0
1013,1407. 먹골역 1번출구 뒤,37.61151123,127.07788849,ST-847,205.0,54.0,472.0,42.0,99.0,434.0
1014,1408. 먹골역 6번출구 앞,37.61072159,127.07747650,ST-570,143.0,23.0,392.0,21.0,27.0,505.0
1015,1410. 면목 대원칸타빌아파트,37.57778168,127.09018707,ST-573,386.0,93.0,195.0,100.0,380.0,589.0
1016,1411. 상봉시장앞 교차로 한성빌딩 앞,37.59254074,127.08673859,ST-912,569.0,5.0,210.0,101.0,349.0,128.0
1017,1413. 봉화산역 5번출구 뒤,37.61756134,127.09030914,ST-577,357.0,40.0,248.0,28.0,95.0,746.0
1018,1414. 사가정역 1번출구,37.58137894,127.08844757,ST-849,273.0,43.0,453.0,56.0,75.0,868.0
1019,1416. 상봉역 3번출구,37.59521866,127.08599854,ST-850,414.0,76.0,409.0,93.0,46.0,185.0
1020,1418. 새솔초등학교,37.61743927,127.10901642,ST-583,1187.0,148.0,207.0,145.0,690.0,969.0
1021,1420. 신내어울공원 앞,37.61394501,127.09770203,ST-585,408.0,161.0,469.0,237.0,506.0,1024.0
1022,1421. 신내역 4번출구,37.61246109,127.10337830,ST-586,930.0,294.0,417.0,324.0,30.0,1188.0
1023,1422. 신내우디안아파트 1단지,37.62009811,127.10646057,ST-587,1070.0,306.0,487.0,34.0,866.0,615.0
1024,1424. 양원역 2번출구,37.60631180,127.10774231,ST-588,611.0,111.0,96.0,313.0,37.0,1678.0
1025,1425. 용마문화복지센터,37.58745956,127.09597015,ST-589,782.0,60.0,307.0,86.0,760.0,1107.0
1026,1426. 면목도시개발아파트 1동 앞,37.57358932,127.08682251,ST-590,679.0,15.0,107.0,213.0,12.0,162.0
1027,1427. 용마산역 1번출구,37.57429886,127.08691406,ST-852,600.0,74.0,80.0,156.0,71.0,152.0
1028,1428. 원묵고등학교,37.61602402,127.08596802,ST-853,550.0,44.0,78.0,34.0,474.0,632.0
1029,1429. 장안중학교,37.59995651,127.08000183,ST-854,235.0,64.0,154.0,13.0,294.0,888.0
1030,1430. 중랑구청,37.60615158,127.09259796,ST-855,271.0,177.0,87.0,132.0,684.0,886.0
1031,1431. 중랑구청 사거리,37.60649872,127.09545135,ST-856,65.0,64.0,202.0,22.0,790.0,983.0
1032,1433. 중화역 2번출구,37.60207748,127.07958221,ST-857,365.0,34.0,199.0,90.0,57.0,1089.0
1033,1435. 능산삼거리,37.60868073,127.10079193,ST-593,546.0,210.0,396.0,201.0,495.0,1421.0
1034,1436. 동원베네스트 건물 앞,37.60810089,127.10118103,ST-594,543.0,190.0,361.0,215.0,541.0,1390.0
1035,1437. 늘푸른공원 앞,37.58341980,127.07992554,ST-595,368.0,41.0,641.0,74.0,806.0,1117.0
1036,1438. 홈플러스 신내점 앞,37.61616898,127.09348297,ST-596,43.0,48.0,299.0,51.0,228.0,895.0
1037,1440. 면목2동 사거리,37.58637238,127.08007050,ST-942,670.0,167.0,424.0,88.0,706.0,874.0
1038,1441. 신내능말공원,37.61671066,127.11073303,ST-584,1207.0,45.0,145.0,37.0,738.0,1138.0
1039,1442. 중랑구 중소기업 창업센터,37.59859085,127.07981873,ST-1093,216.0,88.0,286.0,43.0,441.0,760.0
1040,1444. 면목4치안센터,37.57402802,127.08054352,ST-1095,732.0,32.0,253.0,19.0,547.0,253.0
1041,1445. 용마지구대,37.57994080,127.07939911,ST-1096,236.0,327.0,355.0,310.0,811.0,781.0
1042,1446. 중랑전화국 교차로,37.59130096,127.08032990,ST-1097,914.0,42.0,148.0,14.0,523.0,526.0
1043,1447. 면목역 3번출구,37.58890152,127.08728027,ST-1098,542.0,28.0,239.0,64.0,28.0,527.0
1044,1448. 코스트코 상봉점,37.59732056,127.08979797,ST-1099,53.0,98.0,457.0,140.0,315.0,181.0
1045,1449. 상봉역 1번출구,37.59655762,127.08583832,ST-1332,369.0,22.0,279.0,43.0,63.0,334.0
1046,1450. 화랑대역 7번출구,37.61963654,127.08504486,ST-1333,161.0,61.0,99.0,59.0,134.0,241.0
1047,1451. 중랑세무서,37.59275818,127.07266998,ST-1334,835.0,178.0,426.0,61.0,352.0,188.0
1048,1452. 겸재교 진입부,37.58565521,127.07505035,ST-1335,606.0,130.0,352.0,147.0,1021.0,819.0
1049,1453. 중랑캠핑숲,37.60460281,127.10925293,ST-1345,504.0,241.0,95.0,251.0,250.0,1602.0
1050,1454. 한국전력공사(동대문 중랑지사),37.60734940,127.07859039,ST-1346,195.0,69.0,287.0,122.0,370.0,892.0
1051,1455. 상봉역 2번 출구,37.59632874,127.08589935,ST-1375,374.0,44.0,302.0,29.0,78.0,308.0
1052,1456. 상아빌딩(우림시장 교차로),37.59511185,127.10032654,ST-1380,4.0,21.0,277.0,51.0,842.0,770.0
1053,1457. 동원사거리,37.58975983,127.09323883,ST-1381,741.0,60.0,440.0,117.0,519.0,762.0
1054,1458. 상봉터미널2,37.59733963,127.09308624,ST-1451,110.0,53.0,516.0,119.0,226.0,85.0
1055,1459. 용마한신아파트사거리,37.58034897,127.09265137,ST-1452,545.0,84.0,418.0,127.0,372.0,944.0
1056,1461.동양엔파트 앞,37.59385300,127.07507324,ST-2282,633.0,88.0,471.0,129.0,122.0,94.0
1057,1462.동부시장 북문 앞,37.59386826,127.07652283,ST-2283,600.0,64.0,481.0,208.0,131.0,179.0
1058,1463.중랑구민회관,37.57407761,127.08500671,ST-2284,639.0,125.0,91.0,94.0,158.0,25.0
1059,1464.중화역 4번출구,37.60305405,127.07900238,ST-2285,284.0,62.0,248.0,13.0,61.0,1173.0
1060,1465.중랑공영차고지 옆,37.61314774,127.10514832,ST-2286,1051.0,394.0,458.0,393.0,106.0,1160.0
1061,1466.두산대림아파트 삼거리,37.61882401,127.08757019,ST-2287,394.0,296.0,146.0,277.0,372.0,467.0
1062,1467.sk신내 주유소앞(용마산로),37.61362076,127.10115051,ST-2288,699.0,128.0,627.0,329.0,209.0,1033.0
1063,1468.먹골역 7번 출구,37.61147690,127.07739258,ST-2289,205.0,20.0,435.0,57.0,100.0,422.0
1064,1469.먹골역 4번출구,37.60982132,127.07813263,ST-2290,58.0,50.0,388.0,43.0,94.0,617.0
1065,1470.중화동 우리은행 앞,37.60520172,127.07858276,ST-2291,57.0,121.0,247.0,50.0,301.0,1123.0
1066,1471.동양쇼핑 정류소 앞,37.61535263,127.07849121,ST-2292,242.0,87.0,524.0,44.0,397.0,223.0
1067,1472.영성빌딩(PAT),37.60408401,127.07923126,ST-2293,171.0,65.0,187.0,15.0,170.0,1257.0
1068,1473.중랑역 1번 출구(중화문화복지센터),37.59489059,127.07495117,ST-2294,531.0,38.0,587.0,194.0,64.0,206.0
1069,1474.서울중랑우체국,37.59581375,127.08283997,ST-2295,604.0,60.0,299.0,54.0,227.0,378.0
1070,1477.면목삼익아파트 앞,37.57598495,127.07960510,ST-2298,545.0,179.0,370.0,195.0,679.0,422.0
1071,1478.홈플러스 상봉점 앞,37.59832764,127.09226990,ST-2299,232.0,65.0,385.0,57.0,107.0,67.0
1072,1479.면목 홈플러스 2 ,37.58105469,127.08209229,ST-2300,59.0,198.0,623.0,185.0,566.0,802.0
1073,1480. 용마지구대 옆,37.58111191,127.08010101,ST-2301,177.0,255.0,475.0,189.0,742.0,877.0
1074,"1501. 미아역 3번,4번 출구 사이",37.62607956,127.02648163,ST-948,220.0,58.0,276.0,40.0,74.0,597.0
1075,1503. 이디야 커피 수유역점 앞,37.63926315,127.02672577,ST-643,872.0,70.0,642.0,28.0,186.0,311.0
1076,1504. 다이소 삼양시장점,37.62415695,127.01862335,ST-644,171.0,98.0,236.0,26.0,309.0,894.0
1077,1506. 강북문화예술회관,37.64032745,127.01335907,ST-645,863.0,18.0,206.0,77.0,329.0,57.0
1078,1509. 서울북부수도사업소,37.63437653,127.03575134,ST-859,677.0,47.0,209.0,150.0,984.0,608.0
1079,1510. 번동주공5단지 관리사무소 앞,37.63371658,127.03551483,ST-860,743.0,118.0,144.0,213.0,996.0,615.0
1080,1511. 번동 금호어울림아파트102동앞,37.63112259,127.03603363,ST-861,494.0,148.0,154.0,345.0,1012.0,796.0
1081,1512. 강북중학교 앞,37.64473724,127.02656555,ST-862,661.0,157.0,49.0,160.0,766.0,329.0
1082,1513. 강북구청 뒷편,37.63967133,127.02519989,ST-863,911.0,73.0,614.0,124.0,200.0,255.0
1083,1514. 강북구청 사거리 버스정류소 앞,37.63880539,127.02835846,ST-646,788.0,25.0,489.0,18.0,271.0,317.0
1084,1515. 송천동 주민센터,37.61828613,127.02404785,ST-648,440.0,106.0,237.0,15.0,460.0,591.0
1085,1516. 우이초등학교 후문 옆,37.63858795,127.01590729,ST-652,925.0,78.0,118.0,39.0,336.0,345.0
1086,1518. SK telecom(수유직영점) 앞,37.64308548,127.01616669,ST-654,469.0,82.0,503.0,13.0,179.0,364.0
1087,1519. 세븐일레븐 수유장미원점 앞,37.64545059,127.01561737,ST-651,350.0,74.0,455.0,76.0,445.0,557.0
1088,1520. 성실교회,37.63986206,127.02278900,ST-650,791.0,88.0,662.0,85.0,325.0,44.0
1089,1522. 월드전기조명인테리어(우이동),37.65447235,127.01275635,ST-864,364.0,99.0,151.0,3.0,173.0,382.0
1090,1525. 미아동 복합청사,37.62714005,127.02669525,ST-647,329.0,12.0,182.0,20.0,78.0,478.0
1091,1526. 수유동 채선당앞,37.64173889,127.02462769,ST-1100,699.0,22.0,405.0,118.0,434.0,275.0
1092,1527. 미아역 1번 출구 뒤,37.62733459,127.02605438,ST-1101,364.0,50.0,224.0,34.0,75.0,463.0
1093,1528. 삼각산동 주민센터,37.61503601,127.02069855,ST-1102,363.0,118.0,151.0,128.0,697.0,318.0
1094,1529. 미아동 한국전력공사,37.63018036,127.02490997,ST-1103,695.0,49.0,70.0,53.0,403.0,233.0
1095,1530. 광산사거리,37.64355087,127.02234650,ST-1104,415.0,65.0,391.0,56.0,540.0,388.0
1096,1531. 미아사거리 1번 출구,37.61395645,127.03025055,ST-1105,346.0,81.0,221.0,72.0,76.0,136.0
1097,1532. 번3동 주민센터 교차로,37.62635422,127.04744720,ST-1106,411.0,153.0,226.0,41.0,1266.0,683.0
1098,"1533. 번동 주공3, 4단지 교차로",37.62991714,127.04091644,ST-1107,204.0,176.0,81.0,155.0,1361.0,822.0
1099,1535. 효성인텔리안 앞,37.63629150,127.02337646,ST-1109,1181.0,23.0,597.0,76.0,258.0,76.0
1100,1536. 번동 두산위브 101동 옆,37.63626099,127.03217316,ST-1110,705.0,98.0,173.0,80.0,614.0,266.0
1101,1537. 북한산 우이역,37.66366577,127.01242828,ST-1387,685.0,49.0,770.0,505.0,91.0,152.0
1102,1538. 솔밭공원역,37.65615845,127.01313782,ST-1388,176.0,103.0,236.0,28.0,23.0,481.0
1103,1539. 4.19민주묘지역,37.64967346,127.01345062,ST-1389,633.0,30.0,260.0,6.0,27.0,415.0
1104,1540. 가오리역,37.64167023,127.01688385,ST-1390,575.0,91.0,384.0,26.0,17.0,340.0
1105,1541. 삼양역,37.62652969,127.01805878,ST-1391,113.0,14.0,354.0,69.0,44.0,960.0
1106,1542. 삼양사거리역,37.62155151,127.02037048,ST-1392,413.0,22.0,352.0,67.0,28.0,653.0
1107,1543. 수유1동 주민센터,37.63018799,127.01773834,ST-1423,516.0,59.0,236.0,28.0,364.0,702.0
1108,1546. 송천동우체국,37.61545944,127.02970123,ST-1665,511.0,53.0,236.0,58.0,244.0,90.0
1109,1547. 꿈의숲 롯데캐슬,37.61864090,127.03623962,ST-1724,885.0,161.0,441.0,317.0,805.0,372.0
1110,1548. 북서울 꿈의숲 서문,37.62268829,127.03781128,ST-1725,643.0,332.0,770.0,365.0,1128.0,127.0
1111,1550.삼각산아이원아파트(105동 옆),37.61522293,127.01850891,ST-2123,311.0,140.0,170.0,100.0,698.0,143.0
1112,1551.4.19탑 앞,37.64686203,127.00881195,ST-2124,933.0,50.0,350.0,264.0,523.0,268.0
1113,1552. 강북구청사거리(던킨도너츠 앞),37.63920212,127.02723694,ST-2125,838.0,78.0,597.0,52.0,211.0,307.0
1114,1553.예수그리스도후기성도교회 앞,37.63520432,127.03396606,ST-2126,674.0,135.0,187.0,101.0,803.0,432.0
1115,1554.번동사거리,37.63539124,127.03455353,ST-2127,627.0,81.0,174.0,45.0,844.0,480.0
1116,1557.신창교,37.63238144,127.03930664,ST-2129,475.0,87.0,143.0,142.0,1332.0,981.0
1117,1558.강북문화정보도서관,37.62552643,127.03732300,ST-2130,387.0,177.0,500.0,48.0,1003.0,418.0
1118,1560. 도봉세무서 앞,37.61980820,127.02852631,ST-2132,240.0,96.0,359.0,50.0,729.0,558.0
1119,1564.4.19민주묘지역 1번출구,37.64959717,127.01384735,ST-2133,599.0,36.0,225.0,10.0,15.0,427.0
1120,1565.대한병원앞,37.63561249,127.02299500,ST-2134,1210.0,55.0,559.0,93.0,336.0,73.0
1121,1568.4.19민주묘지 입구사거리,37.64793396,127.01457214,ST-2136,454.0,42.0,237.0,55.0,193.0,533.0
1122,1569.수유역2번출구,37.63796997,127.02590179,ST-2137,1014.0,62.0,683.0,36.0,35.0,312.0
1123,1571.북서울 꿈의 숲 입구,37.62673187,127.03877258,ST-2401,203.0,82.0,320.0,85.0,1124.0,489.0
1124,1572. 우이동 먹거리마을,37.66446304,127.01184082,ST-2402,783.0,72.0,849.0,603.0,192.0,81.0
1125,1573.현대성우아파트 옆,37.61666489,127.02210999,ST-2403,316.0,89.0,147.0,69.0,535.0,420.0
1126,1574.송중초등학교 옆,37.61669922,127.03049469,ST-2405,624.0,71.0,110.0,29.0,381.0,244.0
1127,1601. 석계역 문화광장 내 자전거 보관소,37.61529922,127.06446838,ST-600,336.0,38.0,626.0,61.0,112.0,160.0
1128,1602. 광운대역 앞,37.62266159,127.06189728,ST-913,429.0,88.0,496.0,69.0,131.0,326.0
1129,1605. 헬스케어,37.63162231,127.06161499,ST-866,408.0,63.0,38.0,69.0,305.0,788.0
1130,1606. 태릉입구역 3번출구 ,37.61917114,127.07492828,ST-602,546.0,69.0,64.0,56.0,89.0,193.0
1131,1608. 공릉역 1번 출구 앞,37.62661362,127.07275391,ST-735,211.0,50.0,150.0,26.0,121.0,355.0
1132,1610. 화랑대역 2번출구 앞,37.62036896,127.08364105,ST-603,33.0,52.0,224.0,49.0,59.0,108.0
1133,1611. 과기대 입구(우),37.62994003,127.07655334,ST-604,493.0,42.0,149.0,40.0,578.0,273.0
1134,1616. 하계2동 공항버스정류장 옆,37.63510895,127.06832886,ST-605,179.0,162.0,338.0,108.0,154.0,507.0
1135,1617. 하계동 중평어린이공원 앞,37.63714981,127.06327057,ST-606,340.0,212.0,77.0,125.0,423.0,216.0
1136,1619. 중계동 하나프라자빌딩 앞(중1-1),37.64902115,127.07640839,ST-736,201.0,35.0,328.0,15.0,1169.0,366.0
1137,1620. 중계동 노원구민체육센터 옆(중1-2),37.64820862,127.07022095,ST-867,175.0,270.0,205.0,38.0,640.0,858.0
1138,1625. 상계역(4번출구),37.65999985,127.07296753,ST-914,77.0,100.0,258.0,82.0,89.0,252.0
1139,1627. 수락산역 4번출구,37.67694092,127.05509949,ST-915,560.0,72.0,373.0,99.0,106.0,61.0
1140,1628. 노일초등학교 앞,37.67361832,127.05525208,ST-868,205.0,157.0,47.0,47.0,473.0,226.0
1141,1630. 수연빌딩 앞,37.67625046,127.05550385,ST-869,478.0,57.0,303.0,75.0,181.0,38.0
1142,1634. 당고개공원 대여소,37.66846085,127.07714844,ST-608,428.0,102.0,118.0,154.0,258.0,331.0
1143,1635. 상계3.4동 주민센터 대여소,37.67271042,127.08316040,ST-609,316.0,42.0,705.0,51.0,454.0,384.0
1144,1636. 상계주공2단지 버스정류장 옆,37.64921188,127.06176758,ST-610,207.0,58.0,186.0,30.0,501.0,549.0
1145,1637. KT 전화국 버스정류장 옆,37.65470123,127.06340027,ST-611,422.0,32.0,324.0,53.0,182.0,45.0
1146,1639. 희성오피앙,37.68031311,127.05506897,ST-612,670.0,16.0,330.0,7.0,271.0,417.0
1147,1640. 한내근린공원 북측,37.62386322,127.06848907,ST-971,151.0,292.0,373.0,146.0,442.0,560.0
1148,1641. 한내근린공원 남측,37.62155533,127.06951141,ST-970,398.0,147.0,129.0,153.0,540.0,693.0
1149,1642. 서울여대 남문,37.62531662,127.08813477,ST-964,646.0,102.0,259.0,61.0,730.0,469.0
